{
"type": "FeatureCollection",
"name": "airports_large_medium",
"features": [
{ "type": "Feature", "properties": { "municipality": "Utirik Island", "type": "small_airport", "iata_code": "UTK", "latitude_deg": 11.222, "longitude_deg": 169.852005, "iso_country": "MH" }, "geometry": { "type": "Point", "coordinates": [ 169.852005, 11.222 ] } },
{ "type": "Feature", "properties": { "municipality": "Berwick", "type": "heliport", "iata_code": "", "latitude_deg": 41.066861, "longitude_deg": -76.180806, "iso_country": "US" }, "geometry": { "type": "Point", "coordinates": [ -76.180806, 41.066861 ] } },
{ "type": "Feature", "properties": { "municipality": "Lebanon", "type": "heliport", "iata_code": "", "latitude_deg": 36.898, "longitude_deg": -82.078, "iso_country": "US" }, "geometry": { "type": "Point", "coordinates": [ -82.078, 36.898 ] } },
{ "type": "Feature", "properties": { "municipality": "Palmer", "type": "small_airport", "iata_code": "", "latitude_deg": 61.66830063, "longitude_deg": -149.1880035, "iso_country": "US" }, "geometry": { "type": "Point", "coordinates": [ -149.1880035, 61.66830063 ] } },
{ "type": "Feature", "properties": { "municipality": "Pilot Station", "type": "small_airport", "iata_code": "PQS", "latitude_deg": 61.934601, "longitude_deg": -162.899994, "iso_country": "US" }, "geometry": { "type": "Point", "coordinates": [ -162.899994, 61.934601 ] } },
{ "type": "Feature", "properties": { "municipality": "Gettysburg", "type": "heliport", "iata_code": "", "latitude_deg": 39.8495, "longitude_deg": -77.184167, "iso_country": "US" }, "geometry": { "type": "Point", "coordinates": [ -77.184167, 39.8495 ] } },
{ "type": "Feature", "properties": { "municipality": "Melville", "type": "heliport", "iata_code": "", "latitude_deg": 40.7975502014, "longitude_deg": -73.417900085400007, "iso_country": "US" }, "geometry": { "type": "Point", "coordinates": [ -73.417900085400007, 40.7975502014 ] } },
{ "type": "Feature", "properties": { "municipality": "Nunapitchuk", "type": "small_airport", "iata_code": "NUP", "latitude_deg": 60.905591, "longitude_deg": -162.440454, "iso_country": "US" }, "geometry": { "type": "Point", "coordinates": [ -162.440454, 60.905591 ] } },
{ "type": "Feature", "properties": { "municipality": "Port Protection", "type": "seaplane_base", "iata_code": "PPV", "latitude_deg": 56.328800201416001, "longitude_deg": -133.61000061035, "iso_country": "US" }, "geometry": { "type": "Point", "coordinates": [ -133.610000610349999, 56.328800201416001 ] } },
{ "type": "Feature", "properties": { "municipality": "Stonewall", "type": "small_airport", "iata_code": "", "latitude_deg": 30.2323611, "longitude_deg": -98.6549722, "iso_country": "US" }, "geometry": { "type": "Point", "coordinates": [ -98.6549722, 30.2323611 ] } },
{ "type": "Feature", "properties": { "municipality": "Broussard", "type": "heliport", "iata_code": "", "latitude_deg": 30.076753, "longitude_deg": -91.948969, "iso_country": "US" }, "geometry": { "type": "Point", "coordinates": [ -91.948969, 30.076753 ] } },
{ "type": "Feature", "properties": { "municipality": "Wilmington", "type": "heliport", "iata_code": "", "latitude_deg": 34.316552, "longitude_deg": -77.768284, "iso_country": "US" }, "geometry": { "type": "Point", "coordinates": [ -77.768284, 34.316552 ] } },
{ "type": "Feature", "properties": { "municipality": "Atmautluak", "type": "small_airport", "iata_code": "ATT", "latitude_deg": 60.866699, "longitude_deg": -162.272996, "iso_country": "US" }, "geometry": { "type": "Point", "coordinates": [ -162.272996, 60.866699 ] } },
{ "type": "Feature", "properties": { "municipality": "Ouzinkie", "type": "small_airport", "iata_code": "KOZ", "latitude_deg": 57.942094, "longitude_deg": -152.464314, "iso_country": "US" }, "geometry": { "type": "Point", "coordinates": [ -152.464314, 57.942094 ] } },
{ "type": "Feature", "properties": { "municipality": "Salem", "type": "heliport", "iata_code": "", "latitude_deg": 44.912, "longitude_deg": -123.00150275199999, "iso_country": "US" }, "geometry": { "type": "Point", "coordinates": [ -123.001502752, 44.912 ] } },
{ "type": "Feature", "properties": { "municipality": "Hyder", "type": "seaplane_base", "iata_code": "WHD", "latitude_deg": 55.903324, "longitude_deg": -130.009975, "iso_country": "US" }, "geometry": { "type": "Point", "coordinates": [ -130.009975, 55.903324 ] } },
{ "type": "Feature", "properties": { "municipality": "Sylvan Beach", "type": "small_airport", "iata_code": "", "latitude_deg": 43.224244, "longitude_deg": -75.675528, "iso_country": "US" }, "geometry": { "type": "Point", "coordinates": [ -75.675528, 43.224244 ] } },
{ "type": "Feature", "properties": { "municipality": "Aleknagik", "type": "medium_airport", "iata_code": "WKK", "latitude_deg": 59.2826004028, "longitude_deg": -158.61799621599999, "iso_country": "US" }, "geometry": { "type": "Point", "coordinates": [ -158.617996216, 59.2826004028 ] } },
{ "type": "Feature", "properties": { "municipality": "Ketchikan", "type": "seaplane_base", "iata_code": "WFB", "latitude_deg": 55.349899, "longitude_deg": -131.677002, "iso_country": "US" }, "geometry": { "type": "Point", "coordinates": [ -131.677002, 55.349899 ] } },
{ "type": "Feature", "properties": { "municipality": "New York", "type": "heliport", "iata_code": "TSS", "latitude_deg": 40.742599487304688, "longitude_deg": -73.972099304199219, "iso_country": "US" }, "geometry": { "type": "Point", "coordinates": [ -73.972099304199219, 40.742599487304688 ] } },
{ "type": "Feature", "properties": { "municipality": "New York", "type": "seaplane_base", "iata_code": "QNY", "latitude_deg": 40.735061, "longitude_deg": -73.972814, "iso_country": "US" }, "geometry": { "type": "Point", "coordinates": [ -73.972814, 40.735061 ] } },
{ "type": "Feature", "properties": { "municipality": "Tatitlek", "type": "small_airport", "iata_code": "TEK", "latitude_deg": 60.871449, "longitude_deg": -146.690297, "iso_country": "US" }, "geometry": { "type": "Point", "coordinates": [ -146.690297, 60.871449 ] } },
{ "type": "Feature", "properties": { "municipality": "Castle Rock", "type": "heliport", "iata_code": "", "latitude_deg": 39.344239, "longitude_deg": -104.841906, "iso_country": "US" }, "geometry": { "type": "Point", "coordinates": [ -104.841906, 39.344239 ] } },
{ "type": "Feature", "properties": { "municipality": "Chuathbaluk", "type": "small_airport", "iata_code": "CHU", "latitude_deg": 61.579102, "longitude_deg": -159.216003, "iso_country": "US" }, "geometry": { "type": "Point", "coordinates": [ -159.216003, 61.579102 ] } },
{ "type": "Feature", "properties": { "municipality": "Levelock", "type": "small_airport", "iata_code": "KLL", "latitude_deg": 59.12606, "longitude_deg": -156.860906, "iso_country": "US" }, "geometry": { "type": "Point", "coordinates": [ -156.860906, 59.12606 ] } },
{ "type": "Feature", "properties": { "municipality": "Chignik Lake", "type": "small_airport", "iata_code": "KCQ", "latitude_deg": 56.2550010681, "longitude_deg": -158.77499389600001, "iso_country": "US" }, "geometry": { "type": "Point", "coordinates": [ -158.774993896000012, 56.2550010681 ] } },
{ "type": "Feature", "properties": { "municipality": "Batha", "type": "small_airport", "iata_code": "", "latitude_deg": 24.214693, "longitude_deg": 51.44989, "iso_country": "SA" }, "geometry": { "type": "Point", "coordinates": [ 51.44989, 24.214693 ] } },
{ "type": "Feature", "properties": { "municipality": "Algeciras", "type": "heliport", "iata_code": "", "latitude_deg": 36.12882, "longitude_deg": -5.441079, "iso_country": "ES" }, "geometry": { "type": "Point", "coordinates": [ -5.441079, 36.12882 ] } },
{ "type": "Feature", "properties": { "municipality": "Qara Tepa", "type": "heliport", "iata_code": "", "latitude_deg": 37.423302, "longitude_deg": 69.430298, "iso_country": "AF" }, "geometry": { "type": "Point", "coordinates": [ 69.430298, 37.423302 ] } },
{ "type": "Feature", "properties": { "municipality": "Bila", "type": "small_airport", "iata_code": "AFT", "latitude_deg": -9.1913888888899997, "longitude_deg": 160.94861111099999, "iso_country": "SB" }, "geometry": { "type": "Point", "coordinates": [ 160.948611111, -9.19138888889 ] } },
{ "type": "Feature", "properties": { "municipality": "Atoifi", "type": "small_airport", "iata_code": "ATD", "latitude_deg": -8.87333, "longitude_deg": 161.011002, "iso_country": "SB" }, "geometry": { "type": "Point", "coordinates": [ 161.011002, -8.87333 ] } },
{ "type": "Feature", "properties": { "municipality": "Auki", "type": "small_airport", "iata_code": "AKS", "latitude_deg": -8.70257, "longitude_deg": 160.682007, "iso_country": "SB" }, "geometry": { "type": "Point", "coordinates": [ 160.682007, -8.70257 ] } },
{ "type": "Feature", "properties": { "municipality": "Anua", "type": "small_airport", "iata_code": "BNY", "latitude_deg": -11.302222222200001, "longitude_deg": 159.79833333299999, "iso_country": "SB" }, "geometry": { "type": "Point", "coordinates": [ 159.798333332999988, -11.302222222200001 ] } },
{ "type": "Feature", "properties": { "municipality": "", "type": "small_airport", "iata_code": "CHY", "latitude_deg": -6.711944, "longitude_deg": 156.396111, "iso_country": "SB" }, "geometry": { "type": "Point", "coordinates": [ 156.396111, -6.711944 ] } },
{ "type": "Feature", "properties": { "municipality": "Ballalae", "type": "small_airport", "iata_code": "BAS", "latitude_deg": -6.990745, "longitude_deg": 155.886656, "iso_country": "SB" }, "geometry": { "type": "Point", "coordinates": [ 155.886656, -6.990745 ] } },
{ "type": "Feature", "properties": { "municipality": "Fera Island", "type": "small_airport", "iata_code": "FRE", "latitude_deg": -8.1075, "longitude_deg": 159.576996, "iso_country": "SB" }, "geometry": { "type": "Point", "coordinates": [ 159.576996, -8.1075 ] } },
{ "type": "Feature", "properties": { "municipality": "Honiara", "type": "large_airport", "iata_code": "HIR", "latitude_deg": -9.428, "longitude_deg": 160.054993, "iso_country": "SB" }, "geometry": { "type": "Point", "coordinates": [ 160.054993, -9.428 ] } },
{ "type": "Feature", "properties": { "municipality": "Mbambanakira", "type": "small_airport", "iata_code": "MBU", "latitude_deg": -9.7475004196166992, "longitude_deg": 159.83900451660156, "iso_country": "SB" }, "geometry": { "type": "Point", "coordinates": [ 159.839004516601562, -9.747500419616699 ] } },
{ "type": "Feature", "properties": { "municipality": "Kirakira", "type": "small_airport", "iata_code": "IRA", "latitude_deg": -10.449700355500001, "longitude_deg": 161.897994995, "iso_country": "SB" }, "geometry": { "type": "Point", "coordinates": [ 161.897994995, -10.449700355500001 ] } },
{ "type": "Feature", "properties": { "municipality": "Santa Cruz/Graciosa Bay/Luova", "type": "small_airport", "iata_code": "SCZ", "latitude_deg": -10.72029972076416, "longitude_deg": 165.79499816894531, "iso_country": "SB" }, "geometry": { "type": "Point", "coordinates": [ 165.794998168945312, -10.72029972076416 ] } },
{ "type": "Feature", "properties": { "municipality": "Munda", "type": "medium_airport", "iata_code": "MUA", "latitude_deg": -8.32797, "longitude_deg": 157.263, "iso_country": "SB" }, "geometry": { "type": "Point", "coordinates": [ 157.263, -8.32797 ] } },
{ "type": "Feature", "properties": { "municipality": "Gizo", "type": "small_airport", "iata_code": "GZO", "latitude_deg": -8.0977802276599995, "longitude_deg": 156.86399841299999, "iso_country": "SB" }, "geometry": { "type": "Point", "coordinates": [ 156.863998413, -8.097780227659999 ] } },
{ "type": "Feature", "properties": { "municipality": "Stirling Island", "type": "small_airport", "iata_code": "MNY", "latitude_deg": -7.4169402122497559, "longitude_deg": 155.56500244140625, "iso_country": "SB" }, "geometry": { "type": "Point", "coordinates": [ 155.56500244140625, -7.416940212249756 ] } },
{ "type": "Feature", "properties": { "municipality": "Rennell Island", "type": "small_airport", "iata_code": "RNL", "latitude_deg": -11.533900260925293, "longitude_deg": 160.06300354003906, "iso_country": "SB" }, "geometry": { "type": "Point", "coordinates": [ 160.063003540039062, -11.533900260925293 ] } },
{ "type": "Feature", "properties": { "municipality": "Santa Ana Island", "type": "small_airport", "iata_code": "NNB", "latitude_deg": -10.847994, "longitude_deg": 162.454108, "iso_country": "SB" }, "geometry": { "type": "Point", "coordinates": [ 162.454108, -10.847994 ] } },
{ "type": "Feature", "properties": { "municipality": "Marau", "type": "small_airport", "iata_code": "RUS", "latitude_deg": -9.8616695404099985, "longitude_deg": 160.82499694800001, "iso_country": "SB" }, "geometry": { "type": "Point", "coordinates": [ 160.824996948, -9.861669540409999 ] } },
{ "type": "Feature", "properties": { "municipality": "Suavanao", "type": "small_airport", "iata_code": "VAO", "latitude_deg": -7.5855598449707031, "longitude_deg": 158.73100280761719, "iso_country": "SB" }, "geometry": { "type": "Point", "coordinates": [ 158.731002807617188, -7.585559844970703 ] } },
{ "type": "Feature", "properties": { "municipality": "Yandina", "type": "small_airport", "iata_code": "XYA", "latitude_deg": -9.092816, "longitude_deg": 159.21841, "iso_country": "SB" }, "geometry": { "type": "Point", "coordinates": [ 159.21841, -9.092816 ] } },
{ "type": "Feature", "properties": { "municipality": "Kagau Island", "type": "small_airport", "iata_code": "KGE", "latitude_deg": -7.3305, "longitude_deg": 157.585, "iso_country": "SB" }, "geometry": { "type": "Point", "coordinates": [ 157.585, -7.3305 ] } },
{ "type": "Feature", "properties": { "municipality": "Gatokae", "type": "small_airport", "iata_code": "GTA", "latitude_deg": -8.738358, "longitude_deg": 158.202836, "iso_country": "SB" }, "geometry": { "type": "Point", "coordinates": [ 158.202836, -8.738358 ] } },
{ "type": "Feature", "properties": { "municipality": "Ramata", "type": "small_airport", "iata_code": "RBV", "latitude_deg": -8.168060302734375, "longitude_deg": 157.64300537109375, "iso_country": "SB" }, "geometry": { "type": "Point", "coordinates": [ 157.64300537109375, -8.168060302734375 ] } },
{ "type": "Feature", "properties": { "municipality": "Bigatyelang Island", "type": "small_airport", "iata_code": "AIC", "latitude_deg": 7.279422, "longitude_deg": 168.8257, "iso_country": "MH" }, "geometry": { "type": "Point", "coordinates": [ 168.8257, 7.279422 ] } },
{ "type": "Feature", "properties": { "municipality": "Amook Bay", "type": "seaplane_base", "iata_code": "AOS", "latitude_deg": 57.471500396700002, "longitude_deg": -153.81500244099999, "iso_country": "US" }, "geometry": { "type": "Point", "coordinates": [ -153.815002441, 57.471500396700002 ] } },
{ "type": "Feature", "properties": { "municipality": "Puerto Peñasco", "type": "small_airport", "iata_code": "PPE", "latitude_deg": 31.351987, "longitude_deg": -113.305177, "iso_country": "MX" }, "geometry": { "type": "Point", "coordinates": [ -113.305177, 31.351987 ] } },
{ "type": "Feature", "properties": { "municipality": "Yaren District", "type": "medium_airport", "iata_code": "INU", "latitude_deg": -0.547458, "longitude_deg": 166.919006, "iso_country": "NR" }, "geometry": { "type": "Point", "coordinates": [ 166.919006, -0.547458 ] } },
{ "type": "Feature", "properties": { "municipality": "Merlo", "type": "small_airport", "iata_code": "", "latitude_deg": -32.358200073242188, "longitude_deg": -65.017402648925781, "iso_country": "AR" }, "geometry": { "type": "Point", "coordinates": [ -65.017402648925781, -32.358200073242188 ] } },
{ "type": "Feature", "properties": { "municipality": "San Andrés de Giles", "type": "small_airport", "iata_code": "", "latitude_deg": -34.470347, "longitude_deg": -59.42461, "iso_country": "AR" }, "geometry": { "type": "Point", "coordinates": [ -59.42461, -34.470347 ] } },
{ "type": "Feature", "properties": { "municipality": "", "type": "small_airport", "iata_code": "", "latitude_deg": -42.521363, "longitude_deg": -68.287861, "iso_country": "AR" }, "geometry": { "type": "Point", "coordinates": [ -68.287861, -42.521363 ] } },
{ "type": "Feature", "properties": { "municipality": "Aitape", "type": "small_airport", "iata_code": "ATP", "latitude_deg": -3.1436111111100002, "longitude_deg": 142.34680555599999, "iso_country": "PG" }, "geometry": { "type": "Point", "coordinates": [ 142.346805556, -3.14361111111 ] } },
{ "type": "Feature", "properties": { "municipality": "Cosmo Newbery", "type": "small_airport", "iata_code": "GYZ", "latitude_deg": -28.034548, "longitude_deg": 123.81506, "iso_country": "AU" }, "geometry": { "type": "Point", "coordinates": [ 123.81506, -28.034548 ] } },
{ "type": "Feature", "properties": { "municipality": "Karara", "type": "small_airport", "iata_code": "KQR", "latitude_deg": -29.217223, "longitude_deg": 116.687154, "iso_country": "AU" }, "geometry": { "type": "Point", "coordinates": [ 116.687154, -29.217223 ] } },
{ "type": "Feature", "properties": { "municipality": "Hayman Island", "type": "seaplane_base", "iata_code": "HIS", "latitude_deg": -20.059999465942383, "longitude_deg": 148.88099670410156, "iso_country": "AU" }, "geometry": { "type": "Point", "coordinates": [ 148.880996704101562, -20.059999465942383 ] } },
{ "type": "Feature", "properties": { "municipality": "Bayanhot", "type": "medium_airport", "iata_code": "AXF", "latitude_deg": 38.74831, "longitude_deg": 105.58858, "iso_country": "CN" }, "geometry": { "type": "Point", "coordinates": [ 105.58858, 38.74831 ] } },
{ "type": "Feature", "properties": { "municipality": "Buka Island", "type": "medium_airport", "iata_code": "BUA", "latitude_deg": -5.4223198890686035, "longitude_deg": 154.67300415039062, "iso_country": "PG" }, "geometry": { "type": "Point", "coordinates": [ 154.673004150390625, -5.422319889068604 ] } },
{ "type": "Feature", "properties": { "municipality": "Kundiawa", "type": "medium_airport", "iata_code": "CMU", "latitude_deg": -6.0242900848388672, "longitude_deg": 144.97099304199219, "iso_country": "PG" }, "geometry": { "type": "Point", "coordinates": [ 144.970993041992188, -6.024290084838867 ] } },
{ "type": "Feature", "properties": { "municipality": "Daru", "type": "medium_airport", "iata_code": "DAU", "latitude_deg": -9.0867595672599997, "longitude_deg": 143.20799255399999, "iso_country": "PG" }, "geometry": { "type": "Point", "coordinates": [ 143.207992553999986, -9.08675956726 ] } },
{ "type": "Feature", "properties": { "municipality": "Goronka", "type": "medium_airport", "iata_code": "GKA", "latitude_deg": -6.0816898345900006, "longitude_deg": 145.39199829099999, "iso_country": "PG" }, "geometry": { "type": "Point", "coordinates": [ 145.391998291, -6.081689834590001 ] } },
{ "type": "Feature", "properties": { "municipality": "Gurney", "type": "medium_airport", "iata_code": "GUR", "latitude_deg": -10.311499595600001, "longitude_deg": 150.33399963400001, "iso_country": "PG" }, "geometry": { "type": "Point", "coordinates": [ 150.333999634, -10.311499595600001 ] } },
{ "type": "Feature", "properties": { "municipality": "Popondetta", "type": "medium_airport", "iata_code": "PNP", "latitude_deg": -8.8045396804799996, "longitude_deg": 148.30900573700001, "iso_country": "PG" }, "geometry": { "type": "Point", "coordinates": [ 148.309005737, -8.80453968048 ] } },
{ "type": "Feature", "properties": { "municipality": "Kimbe", "type": "medium_airport", "iata_code": "HKN", "latitude_deg": -5.463846, "longitude_deg": 150.407327, "iso_country": "PG" }, "geometry": { "type": "Point", "coordinates": [ 150.407327, -5.463846 ] } },
{ "type": "Feature", "properties": { "municipality": "Kieta", "type": "small_airport", "iata_code": "KIE", "latitude_deg": -6.305417, "longitude_deg": 155.728139, "iso_country": "PG" }, "geometry": { "type": "Point", "coordinates": [ 155.728139, -6.305417 ] } },
{ "type": "Feature", "properties": { "municipality": "Losuia", "type": "small_airport", "iata_code": "LSA", "latitude_deg": -8.5058202743530273, "longitude_deg": 151.08099365234375, "iso_country": "PG" }, "geometry": { "type": "Point", "coordinates": [ 151.08099365234375, -8.505820274353027 ] } },
{ "type": "Feature", "properties": { "municipality": "Kiunga", "type": "small_airport", "iata_code": "UNG", "latitude_deg": -6.1257100105285645, "longitude_deg": 141.28199768066406, "iso_country": "PG" }, "geometry": { "type": "Point", "coordinates": [ 141.281997680664062, -6.125710010528564 ] } },
{ "type": "Feature", "properties": { "municipality": "Kikori", "type": "small_airport", "iata_code": "KRI", "latitude_deg": -7.424379825592041, "longitude_deg": 144.25007629394531, "iso_country": "PG" }, "geometry": { "type": "Point", "coordinates": [ 144.250076293945312, -7.424379825592041 ] } },
{ "type": "Feature", "properties": { "municipality": "Kerema", "type": "medium_airport", "iata_code": "KMA", "latitude_deg": -7.9636101722700001, "longitude_deg": 145.770996094, "iso_country": "PG" }, "geometry": { "type": "Point", "coordinates": [ 145.770996094, -7.96361017227 ] } },
{ "type": "Feature", "properties": { "municipality": "Kavieng", "type": "medium_airport", "iata_code": "KVG", "latitude_deg": -2.57940006256, "longitude_deg": 150.80799865700001, "iso_country": "PG" }, "geometry": { "type": "Point", "coordinates": [ 150.807998657000013, -2.57940006256 ] } },
{ "type": "Feature", "properties": { "municipality": "Londolovit", "type": "small_airport", "iata_code": "LNV", "latitude_deg": -3.0436100959800001, "longitude_deg": 152.628997803, "iso_country": "PG" }, "geometry": { "type": "Point", "coordinates": [ 152.628997803, -3.04361009598 ] } },
{ "type": "Feature", "properties": { "municipality": "Madang", "type": "medium_airport", "iata_code": "MAG", "latitude_deg": -5.2070798873899999, "longitude_deg": 145.78900146500001, "iso_country": "PG" }, "geometry": { "type": "Point", "coordinates": [ 145.789001465000013, -5.20707988739 ] } },
{ "type": "Feature", "properties": { "municipality": "Mount Hagen", "type": "medium_airport", "iata_code": "HGU", "latitude_deg": -5.828212, "longitude_deg": 144.299412, "iso_country": "PG" }, "geometry": { "type": "Point", "coordinates": [ 144.299412, -5.828212 ] } },
{ "type": "Feature", "properties": { "municipality": "Mendi", "type": "medium_airport", "iata_code": "MDU", "latitude_deg": -6.14774, "longitude_deg": 143.656998, "iso_country": "PG" }, "geometry": { "type": "Point", "coordinates": [ 143.656998, -6.14774 ] } },
{ "type": "Feature", "properties": { "municipality": "Manus Island", "type": "medium_airport", "iata_code": "MAS", "latitude_deg": -2.06189, "longitude_deg": 147.423996, "iso_country": "PG" }, "geometry": { "type": "Point", "coordinates": [ 147.423996, -2.06189 ] } },
{ "type": "Feature", "properties": { "municipality": "Moro", "type": "small_airport", "iata_code": "MXH", "latitude_deg": -6.3633298873899999, "longitude_deg": 143.238006592, "iso_country": "PG" }, "geometry": { "type": "Point", "coordinates": [ 143.238006592, -6.36332988739 ] } },
{ "type": "Feature", "properties": { "municipality": "Misima Island", "type": "small_airport", "iata_code": "MIS", "latitude_deg": -10.689200401299999, "longitude_deg": 152.83799743700001, "iso_country": "PG" }, "geometry": { "type": "Point", "coordinates": [ 152.837997437000013, -10.689200401299999 ] } },
{ "type": "Feature", "properties": { "municipality": "Lae", "type": "medium_airport", "iata_code": "LAE", "latitude_deg": -6.569803, "longitude_deg": 146.725977, "iso_country": "PG" }, "geometry": { "type": "Point", "coordinates": [ 146.725977, -6.569803 ] } },
{ "type": "Feature", "properties": { "municipality": "Port Moresby", "type": "large_airport", "iata_code": "POM", "latitude_deg": -9.4433803558349609, "longitude_deg": 147.22000122070312, "iso_country": "PG" }, "geometry": { "type": "Point", "coordinates": [ 147.220001220703125, -9.443380355834961 ] } },
{ "type": "Feature", "properties": { "municipality": "Tari", "type": "small_airport", "iata_code": "TIZ", "latitude_deg": -5.8449997901900002, "longitude_deg": 142.947998047, "iso_country": "PG" }, "geometry": { "type": "Point", "coordinates": [ 142.947998047, -5.84499979019 ] } },
{ "type": "Feature", "properties": { "municipality": "Tabubil", "type": "small_airport", "iata_code": "TBG", "latitude_deg": -5.27861, "longitude_deg": 141.225998, "iso_country": "PG" }, "geometry": { "type": "Point", "coordinates": [ 141.225998, -5.27861 ] } },
{ "type": "Feature", "properties": { "municipality": "Tapini", "type": "small_airport", "iata_code": "TPI", "latitude_deg": -8.3566666666699998, "longitude_deg": 146.98916666700001, "iso_country": "PG" }, "geometry": { "type": "Point", "coordinates": [ 146.989166667, -8.35666666667 ] } },
{ "type": "Feature", "properties": { "municipality": "Kokopo", "type": "medium_airport", "iata_code": "RAB", "latitude_deg": -4.34046, "longitude_deg": 152.380005, "iso_country": "PG" }, "geometry": { "type": "Point", "coordinates": [ 152.380005, -4.34046 ] } },
{ "type": "Feature", "properties": { "municipality": "Vanimo", "type": "medium_airport", "iata_code": "VAI", "latitude_deg": -2.6926, "longitude_deg": 141.3028, "iso_country": "PG" }, "geometry": { "type": "Point", "coordinates": [ 141.3028, -2.6926 ] } },
{ "type": "Feature", "properties": { "municipality": "Wapenamanda", "type": "medium_airport", "iata_code": "WBM", "latitude_deg": -5.635293, "longitude_deg": 143.892231, "iso_country": "PG" }, "geometry": { "type": "Point", "coordinates": [ 143.892231, -5.635293 ] } },
{ "type": "Feature", "properties": { "municipality": "Wewak", "type": "medium_airport", "iata_code": "WWK", "latitude_deg": -3.5838301181799999, "longitude_deg": 143.66900634800001, "iso_country": "PG" }, "geometry": { "type": "Point", "coordinates": [ 143.669006348000011, -3.58383011818 ] } },
{ "type": "Feature", "properties": { "municipality": "Fatima Mission", "type": "small_airport", "iata_code": "WTP", "latitude_deg": -8.5458333333300001, "longitude_deg": 147.2525, "iso_country": "PG" }, "geometry": { "type": "Point", "coordinates": [ 147.2525, -8.54583333333 ] } },
{ "type": "Feature", "properties": { "municipality": "Yasuru", "type": "small_airport", "iata_code": "KSX", "latitude_deg": -6.6015, "longitude_deg": 146.1813, "iso_country": "PG" }, "geometry": { "type": "Point", "coordinates": [ 146.1813, -6.6015 ] } },
{ "type": "Feature", "properties": { "municipality": "Benguera Island", "type": "medium_airport", "iata_code": "BCW", "latitude_deg": -21.853300094604492, "longitude_deg": 35.438301086425781, "iso_country": "MZ" }, "geometry": { "type": "Point", "coordinates": [ 35.438301086425781, -21.853300094604492 ] } },
{ "type": "Feature", "properties": { "municipality": "Aasiaat", "type": "medium_airport", "iata_code": "JEG", "latitude_deg": 68.721802, "longitude_deg": -52.784698, "iso_country": "GL" }, "geometry": { "type": "Point", "coordinates": [ -52.784698, 68.721802 ] } },
{ "type": "Feature", "properties": { "municipality": "Aappilattoq", "type": "heliport", "iata_code": "AOQ", "latitude_deg": 72.88703, "longitude_deg": -55.596287, "iso_country": "GL" }, "geometry": { "type": "Point", "coordinates": [ -55.596287, 72.88703 ] } },
{ "type": "Feature", "properties": { "municipality": "Tasiilaq", "type": "heliport", "iata_code": "AGM", "latitude_deg": 65.612296, "longitude_deg": -37.618335, "iso_country": "GL" }, "geometry": { "type": "Point", "coordinates": [ -37.618335, 65.612296 ] } },
{ "type": "Feature", "properties": { "municipality": "Alluitsup Paa", "type": "heliport", "iata_code": "", "latitude_deg": 60.46445, "longitude_deg": -45.56917, "iso_country": "GL" }, "geometry": { "type": "Point", "coordinates": [ -45.56917, 60.46445 ] } },
{ "type": "Feature", "properties": { "municipality": "Aappilattoq", "type": "heliport", "iata_code": "", "latitude_deg": 60.148357, "longitude_deg": -44.286916, "iso_country": "GL" }, "geometry": { "type": "Point", "coordinates": [ -44.286916, 60.148357 ] } },
{ "type": "Feature", "properties": { "municipality": "Ammassivik", "type": "heliport", "iata_code": "", "latitude_deg": 60.597376, "longitude_deg": -45.382445, "iso_country": "GL" }, "geometry": { "type": "Point", "coordinates": [ -45.382445, 60.597376 ] } },
{ "type": "Feature", "properties": { "municipality": "Attu", "type": "heliport", "iata_code": "QGQ", "latitude_deg": 67.940663, "longitude_deg": -53.62187, "iso_country": "GL" }, "geometry": { "type": "Point", "coordinates": [ -53.62187, 67.940663 ] } },
{ "type": "Feature", "properties": { "municipality": "Narsarsuaq", "type": "medium_airport", "iata_code": "UAK", "latitude_deg": 61.1605, "longitude_deg": -45.425999, "iso_country": "GL" }, "geometry": { "type": "Point", "coordinates": [ -45.425999, 61.1605 ] } },
{ "type": "Feature", "properties": { "municipality": "Qasigiannguit", "type": "heliport", "iata_code": "JCH", "latitude_deg": 68.822816, "longitude_deg": -51.173447, "iso_country": "GL" }, "geometry": { "type": "Point", "coordinates": [ -51.173447, 68.822816 ] } },
{ "type": "Feature", "properties": { "municipality": "Neerlerit Inaat", "type": "small_airport", "iata_code": "CNP", "latitude_deg": 70.743103, "longitude_deg": -22.650499, "iso_country": "GL" }, "geometry": { "type": "Point", "coordinates": [ -22.650499, 70.743103 ] } },
{ "type": "Feature", "properties": { "municipality": "Eqalugaarsuit", "type": "heliport", "iata_code": "QFG", "latitude_deg": 60.61972, "longitude_deg": -45.914062, "iso_country": "GL" }, "geometry": { "type": "Point", "coordinates": [ -45.914062, 60.61972 ] } },
{ "type": "Feature", "properties": { "municipality": "Narsarmijit", "type": "heliport", "iata_code": "", "latitude_deg": 60.004694, "longitude_deg": -44.656935, "iso_country": "GL" }, "geometry": { "type": "Point", "coordinates": [ -44.656935, 60.004694 ] } },
{ "type": "Feature", "properties": { "municipality": "Nuuk", "type": "medium_airport", "iata_code": "GOH", "latitude_deg": 64.193022, "longitude_deg": -51.676512, "iso_country": "GL" }, "geometry": { "type": "Point", "coordinates": [ -51.676512, 64.193022 ] } },
{ "type": "Feature", "properties": { "municipality": "Qeqertarsuaq", "type": "heliport", "iata_code": "JGO", "latitude_deg": 69.251182, "longitude_deg": -53.514876, "iso_country": "GL" }, "geometry": { "type": "Point", "coordinates": [ -53.514876, 69.251182 ] } },
{ "type": "Feature", "properties": { "municipality": "Ikerasak", "type": "heliport", "iata_code": "IKE", "latitude_deg": 70.498145, "longitude_deg": -51.303084, "iso_country": "GL" }, "geometry": { "type": "Point", "coordinates": [ -51.303084, 70.498145 ] } },
{ "type": "Feature", "properties": { "municipality": "Iginniarfik", "type": "heliport", "iata_code": "QFI", "latitude_deg": 68.147226, "longitude_deg": -53.173528, "iso_country": "GP" }, "geometry": { "type": "Point", "coordinates": [ -53.173528, 68.147226 ] } },
{ "type": "Feature", "properties": { "municipality": "Ikerassaarsuk", "type": "heliport", "iata_code": "QRY", "latitude_deg": 68.140881, "longitude_deg": -53.441459, "iso_country": "GL" }, "geometry": { "type": "Point", "coordinates": [ -53.441459, 68.140881 ] } },
{ "type": "Feature", "properties": { "municipality": "Ilimanaq", "type": "heliport", "iata_code": "XIQ", "latitude_deg": 69.080915, "longitude_deg": -51.114315, "iso_country": "GL" }, "geometry": { "type": "Point", "coordinates": [ -51.114315, 69.080915 ] } },
{ "type": "Feature", "properties": { "municipality": "Innarsuit", "type": "heliport", "iata_code": "IUI", "latitude_deg": 73.199895, "longitude_deg": -56.010817, "iso_country": "GL" }, "geometry": { "type": "Point", "coordinates": [ -56.010817, 73.199895 ] } },
{ "type": "Feature", "properties": { "municipality": "Isortoq", "type": "heliport", "iata_code": "IOQ", "latitude_deg": 65.547792, "longitude_deg": -38.976552, "iso_country": "GL" }, "geometry": { "type": "Point", "coordinates": [ -38.976552, 65.547792 ] } },
{ "type": "Feature", "properties": { "municipality": "Ikamiut", "type": "heliport", "iata_code": "QJI", "latitude_deg": 68.634253, "longitude_deg": -51.832262, "iso_country": "GL" }, "geometry": { "type": "Point", "coordinates": [ -51.832262, 68.634253 ] } },
{ "type": "Feature", "properties": { "municipality": "Qaqortoq", "type": "heliport", "iata_code": "JJU", "latitude_deg": 60.715684, "longitude_deg": -46.029919, "iso_country": "GL" }, "geometry": { "type": "Point", "coordinates": [ -46.029919, 60.715684 ] } },
{ "type": "Feature", "properties": { "municipality": "Ilulissat", "type": "small_airport", "iata_code": "JAV", "latitude_deg": 69.243202, "longitude_deg": -51.057098, "iso_country": "GL" }, "geometry": { "type": "Point", "coordinates": [ -51.057098, 69.243202 ] } },
{ "type": "Feature", "properties": { "municipality": "Kangaatsiaq", "type": "heliport", "iata_code": "QPW", "latitude_deg": 68.312657, "longitude_deg": -53.460208, "iso_country": "GL" }, "geometry": { "type": "Point", "coordinates": [ -53.460208, 68.312657 ] } },
{ "type": "Feature", "properties": { "municipality": "Kulusuk", "type": "medium_airport", "iata_code": "KUS", "latitude_deg": 65.573601, "longitude_deg": -37.1236, "iso_country": "GL" }, "geometry": { "type": "Point", "coordinates": [ -37.1236, 65.573601 ] } },
{ "type": "Feature", "properties": { "municipality": "Upernavik Kujalleq", "type": "heliport", "iata_code": "", "latitude_deg": 72.152743, "longitude_deg": -55.530986, "iso_country": "GL" }, "geometry": { "type": "Point", "coordinates": [ -55.530986, 72.152743 ] } },
{ "type": "Feature", "properties": { "municipality": "Kuummiut", "type": "heliport", "iata_code": "KUZ", "latitude_deg": 65.863935, "longitude_deg": -36.997919, "iso_country": "GL" }, "geometry": { "type": "Point", "coordinates": [ -36.997919, 65.863935 ] } },
{ "type": "Feature", "properties": { "municipality": "Kullorsuaq", "type": "heliport", "iata_code": "KHQ", "latitude_deg": 74.57805, "longitude_deg": -57.226828, "iso_country": "GL" }, "geometry": { "type": "Point", "coordinates": [ -57.226828, 74.57805 ] } },
{ "type": "Feature", "properties": { "municipality": "Kangersuatsiaq", "type": "heliport", "iata_code": "KGQ", "latitude_deg": 72.381092, "longitude_deg": -55.536586, "iso_country": "GL" }, "geometry": { "type": "Point", "coordinates": [ -55.536586, 72.381092 ] } },
{ "type": "Feature", "properties": { "municipality": "Kitsissuarsuit", "type": "heliport", "iata_code": "QJE", "latitude_deg": 68.857926, "longitude_deg": -53.123295, "iso_country": "GL" }, "geometry": { "type": "Point", "coordinates": [ -53.123295, 68.857926 ] } },
{ "type": "Feature", "properties": { "municipality": "Moriusaq", "type": "heliport", "iata_code": "", "latitude_deg": 76.753492, "longitude_deg": -69.845055, "iso_country": "GL" }, "geometry": { "type": "Point", "coordinates": [ -69.845055, 76.753492 ] } },
{ "type": "Feature", "properties": { "municipality": "Maniitsoq", "type": "small_airport", "iata_code": "JSU", "latitude_deg": 65.412498, "longitude_deg": -52.9394, "iso_country": "GL" }, "geometry": { "type": "Point", "coordinates": [ -52.9394, 65.412498 ] } },
{ "type": "Feature", "properties": { "municipality": "Niaqornaarsuk", "type": "heliport", "iata_code": "", "latitude_deg": 68.236381, "longitude_deg": -52.852148, "iso_country": "GL" }, "geometry": { "type": "Point", "coordinates": [ -52.852148, 68.236381 ] } },
{ "type": "Feature", "properties": { "municipality": "Nuugaatsiaq", "type": "heliport", "iata_code": "JUU", "latitude_deg": 71.538769, "longitude_deg": -53.205038, "iso_country": "GL" }, "geometry": { "type": "Point", "coordinates": [ -53.205038, 71.538769 ] } },
{ "type": "Feature", "properties": { "municipality": "Narsaq", "type": "heliport", "iata_code": "JNS", "latitude_deg": 60.917283, "longitude_deg": -46.059923, "iso_country": "GL" }, "geometry": { "type": "Point", "coordinates": [ -46.059923, 60.917283 ] } },
{ "type": "Feature", "properties": { "municipality": "Niaqornat", "type": "heliport", "iata_code": "NIQ", "latitude_deg": 70.789385, "longitude_deg": -53.662945, "iso_country": "GL" }, "geometry": { "type": "Point", "coordinates": [ -53.662945, 70.789385 ] } },
{ "type": "Feature", "properties": { "municipality": "Nuussuaq", "type": "heliport", "iata_code": "NSQ", "latitude_deg": 74.109853, "longitude_deg": -57.065037, "iso_country": "GL" }, "geometry": { "type": "Point", "coordinates": [ -57.065037, 74.109853 ] } },
{ "type": "Feature", "properties": { "municipality": "Paamiut", "type": "small_airport", "iata_code": "JFR", "latitude_deg": 62.014736, "longitude_deg": -49.670937, "iso_country": "GL" }, "geometry": { "type": "Point", "coordinates": [ -49.670937, 62.014736 ] } },
{ "type": "Feature", "properties": { "municipality": "Qeqertaq", "type": "heliport", "iata_code": "PQT", "latitude_deg": 69.995861, "longitude_deg": -51.300917, "iso_country": "GL" }, "geometry": { "type": "Point", "coordinates": [ -51.300917, 69.995861 ] } },
{ "type": "Feature", "properties": { "municipality": "Qaanaaq", "type": "small_airport", "iata_code": "NAQ", "latitude_deg": 77.488602, "longitude_deg": -69.388702, "iso_country": "GL" }, "geometry": { "type": "Point", "coordinates": [ -69.388702, 77.488602 ] } },
{ "type": "Feature", "properties": { "municipality": "Ittoqqortoormiit", "type": "heliport", "iata_code": "OBY", "latitude_deg": 70.488229, "longitude_deg": -21.97168, "iso_country": "GL" }, "geometry": { "type": "Point", "coordinates": [ -21.97168, 70.488229 ] } },
{ "type": "Feature", "properties": { "municipality": "Kangerlussuaq", "type": "medium_airport", "iata_code": "SFJ", "latitude_deg": 67.010446, "longitude_deg": -50.715294, "iso_country": "GL" }, "geometry": { "type": "Point", "coordinates": [ -50.715294, 67.010446 ] } },
{ "type": "Feature", "properties": { "municipality": "Sermiligaaq", "type": "heliport", "iata_code": "", "latitude_deg": 65.90592, "longitude_deg": -36.378254, "iso_country": "GL" }, "geometry": { "type": "Point", "coordinates": [ -36.378254, 65.90592 ] } },
{ "type": "Feature", "properties": { "municipality": "Siorapaluk", "type": "heliport", "iata_code": "SRK", "latitude_deg": 77.786517, "longitude_deg": -70.638657, "iso_country": "GL" }, "geometry": { "type": "Point", "coordinates": [ -70.638657, 77.786517 ] } },
{ "type": "Feature", "properties": { "municipality": "Saqqaq", "type": "heliport", "iata_code": "", "latitude_deg": 70.011448, "longitude_deg": -51.932142, "iso_country": "GL" }, "geometry": { "type": "Point", "coordinates": [ -51.932142, 70.011448 ] } },
{ "type": "Feature", "properties": { "municipality": "Sisimiut", "type": "medium_airport", "iata_code": "JHS", "latitude_deg": 66.951302, "longitude_deg": -53.729301, "iso_country": "GL" }, "geometry": { "type": "Point", "coordinates": [ -53.729301, 66.951302 ] } },
{ "type": "Feature", "properties": { "municipality": "Saattut", "type": "heliport", "iata_code": "SAE", "latitude_deg": 70.811172, "longitude_deg": -51.63129, "iso_country": "GL" }, "geometry": { "type": "Point", "coordinates": [ -51.63129, 70.811172 ] } },
{ "type": "Feature", "properties": { "municipality": "Savissivik", "type": "heliport", "iata_code": "SVR", "latitude_deg": 76.018613, "longitude_deg": -65.117683, "iso_country": "GL" }, "geometry": { "type": "Point", "coordinates": [ -65.117683, 76.018613 ] } },
{ "type": "Feature", "properties": { "municipality": "Pituffik", "type": "medium_airport", "iata_code": "THU", "latitude_deg": 76.531197, "longitude_deg": -68.703201, "iso_country": "GL" }, "geometry": { "type": "Point", "coordinates": [ -68.703201, 76.531197 ] } },
{ "type": "Feature", "properties": { "municipality": "Tiniteqilaaq", "type": "heliport", "iata_code": "TQI", "latitude_deg": 65.892027, "longitude_deg": -37.783409, "iso_country": "GL" }, "geometry": { "type": "Point", "coordinates": [ -37.783409, 65.892027 ] } },
{ "type": "Feature", "properties": { "municipality": "Tasiusak", "type": "heliport", "iata_code": "", "latitude_deg": 60.194305, "longitude_deg": -44.813447, "iso_country": "GL" }, "geometry": { "type": "Point", "coordinates": [ -44.813447, 60.194305 ] } },
{ "type": "Feature", "properties": { "municipality": "Upernavik", "type": "small_airport", "iata_code": "JUV", "latitude_deg": 72.790199, "longitude_deg": -56.1306, "iso_country": "GL" }, "geometry": { "type": "Point", "coordinates": [ -56.1306, 72.790199 ] } },
{ "type": "Feature", "properties": { "municipality": "Uummannaq", "type": "heliport", "iata_code": "UMD", "latitude_deg": 70.680428, "longitude_deg": -52.11163, "iso_country": "GL" }, "geometry": { "type": "Point", "coordinates": [ -52.11163, 70.680428 ] } },
{ "type": "Feature", "properties": { "municipality": "Uummannaq", "type": "small_airport", "iata_code": "JQA", "latitude_deg": 70.7342, "longitude_deg": -52.696201, "iso_country": "GL" }, "geometry": { "type": "Point", "coordinates": [ -52.696201, 70.7342 ] } },
{ "type": "Feature", "properties": { "municipality": "Ukkusissat", "type": "heliport", "iata_code": "JUK", "latitude_deg": 71.049438, "longitude_deg": -51.890016, "iso_country": "GL" }, "geometry": { "type": "Point", "coordinates": [ -51.890016, 71.049438 ] } },
{ "type": "Feature", "properties": { "municipality": "Akureyri", "type": "medium_airport", "iata_code": "AEY", "latitude_deg": 65.660003662109375, "longitude_deg": -18.072700500488281, "iso_country": "IS" }, "geometry": { "type": "Point", "coordinates": [ -18.072700500488281, 65.660003662109375 ] } },
{ "type": "Feature", "properties": { "municipality": "Egilsstaðir", "type": "medium_airport", "iata_code": "EGS", "latitude_deg": 65.283302307128906, "longitude_deg": -14.401399612426758, "iso_country": "IS" }, "geometry": { "type": "Point", "coordinates": [ -14.401399612426758, 65.283302307128906 ] } },
{ "type": "Feature", "properties": { "municipality": "Grímsey", "type": "small_airport", "iata_code": "GRY", "latitude_deg": 66.5458, "longitude_deg": -18.0173, "iso_country": "IS" }, "geometry": { "type": "Point", "coordinates": [ -18.0173, 66.5458 ] } },
{ "type": "Feature", "properties": { "municipality": "Höfn", "type": "medium_airport", "iata_code": "HFN", "latitude_deg": 64.295601, "longitude_deg": -15.2272, "iso_country": "IS" }, "geometry": { "type": "Point", "coordinates": [ -15.2272, 64.295601 ] } },
{ "type": "Feature", "properties": { "municipality": "Húsavík", "type": "medium_airport", "iata_code": "HZK", "latitude_deg": 65.952301, "longitude_deg": -17.426001, "iso_country": "IS" }, "geometry": { "type": "Point", "coordinates": [ -17.426001, 65.952301 ] } },
{ "type": "Feature", "properties": { "municipality": "Ísafjörður", "type": "medium_airport", "iata_code": "IFJ", "latitude_deg": 66.058097839355469, "longitude_deg": -23.135299682617188, "iso_country": "IS" }, "geometry": { "type": "Point", "coordinates": [ -23.135299682617188, 66.058097839355469 ] } },
{ "type": "Feature", "properties": { "municipality": "Reykjavík", "type": "large_airport", "iata_code": "KEF", "latitude_deg": 63.985001, "longitude_deg": -22.6056, "iso_country": "IS" }, "geometry": { "type": "Point", "coordinates": [ -22.6056, 63.985001 ] } },
{ "type": "Feature", "properties": { "municipality": "Reykjavik", "type": "medium_airport", "iata_code": "RKV", "latitude_deg": 64.129997253400006, "longitude_deg": -21.940599441500002, "iso_country": "IS" }, "geometry": { "type": "Point", "coordinates": [ -21.940599441500002, 64.129997253400006 ] } },
{ "type": "Feature", "properties": { "municipality": "Þórshöfn", "type": "small_airport", "iata_code": "THO", "latitude_deg": 66.218498, "longitude_deg": -15.3356, "iso_country": "IS" }, "geometry": { "type": "Point", "coordinates": [ -15.3356, 66.218498 ] } },
{ "type": "Feature", "properties": { "municipality": "Vopnafjörður", "type": "small_airport", "iata_code": "VPN", "latitude_deg": 65.720596313476562, "longitude_deg": -14.850600242614746, "iso_country": "IS" }, "geometry": { "type": "Point", "coordinates": [ -14.850600242614746, 65.720596313476562 ] } },
{ "type": "Feature", "properties": { "municipality": "Bentota", "type": "seaplane_base", "iata_code": "BJT", "latitude_deg": 6.431, "longitude_deg": 79.996, "iso_country": "LK" }, "geometry": { "type": "Point", "coordinates": [ 79.996, 6.431 ] } },
{ "type": "Feature", "properties": { "municipality": "Prishtina", "type": "medium_airport", "iata_code": "PRN", "latitude_deg": 42.5728, "longitude_deg": 21.035801, "iso_country": "XK" }, "geometry": { "type": "Point", "coordinates": [ 21.035801, 42.5728 ] } },
{ "type": "Feature", "properties": { "municipality": "Bamburi", "type": "small_airport", "iata_code": "BMQ", "latitude_deg": -3.983363, "longitude_deg": 39.730982, "iso_country": "KE" }, "geometry": { "type": "Point", "coordinates": [ 39.730982, -3.983363 ] } },
{ "type": "Feature", "properties": { "municipality": "Bosset", "type": "small_airport", "iata_code": "BOT", "latitude_deg": -7.237257, "longitude_deg": 141.1063222, "iso_country": "PG" }, "geometry": { "type": "Point", "coordinates": [ 141.1063222, -7.237257 ] } },
{ "type": "Feature", "properties": { "municipality": "Medianeira", "type": "heliport", "iata_code": "", "latitude_deg": -25.27427, "longitude_deg": -54.067369, "iso_country": "BR" }, "geometry": { "type": "Point", "coordinates": [ -54.067369, -25.27427 ] } },
{ "type": "Feature", "properties": { "municipality": "Campos do Jordão", "type": "heliport", "iata_code": "", "latitude_deg": -22.7384254, "longitude_deg": -45.540062, "iso_country": "BR" }, "geometry": { "type": "Point", "coordinates": [ -45.540062, -22.7384254 ] } },
{ "type": "Feature", "properties": { "municipality": "Aéreas do CBMSC", "type": "heliport", "iata_code": "", "latitude_deg": -27.614324, "longitude_deg": -48.528333, "iso_country": "BR" }, "geometry": { "type": "Point", "coordinates": [ -48.528333, -27.614324 ] } },
{ "type": "Feature", "properties": { "municipality": "Vitória da Conquista", "type": "medium_airport", "iata_code": "VDC", "latitude_deg": -14.907885, "longitude_deg": -40.914804, "iso_country": "BR" }, "geometry": { "type": "Point", "coordinates": [ -40.914804, -14.907885 ] } },
{ "type": "Feature", "properties": { "municipality": "Ubaíra", "type": "small_airport", "iata_code": "", "latitude_deg": -13.240032, "longitude_deg": -39.759292, "iso_country": "BR" }, "geometry": { "type": "Point", "coordinates": [ -39.759292, -13.240032 ] } },
{ "type": "Feature", "properties": { "municipality": "Bimini", "type": "seaplane_base", "iata_code": "NSB", "latitude_deg": 25.767000198364258, "longitude_deg": -79.25, "iso_country": "BS" }, "geometry": { "type": "Point", "coordinates": [ -79.25, 25.767000198364258 ] } },
{ "type": "Feature", "properties": { "municipality": "Belmopan", "type": "small_airport", "iata_code": "BCV", "latitude_deg": 17.269603, "longitude_deg": -88.776496, "iso_country": "BZ" }, "geometry": { "type": "Point", "coordinates": [ -88.776496, 17.269603 ] } },
{ "type": "Feature", "properties": { "municipality": "Big Creek", "type": "medium_airport", "iata_code": "BGK", "latitude_deg": 16.519369, "longitude_deg": -88.407913, "iso_country": "BZ" }, "geometry": { "type": "Point", "coordinates": [ -88.407913, 16.519369 ] } },
{ "type": "Feature", "properties": { "municipality": "Caye Caulker", "type": "medium_airport", "iata_code": "CUK", "latitude_deg": 17.735015, "longitude_deg": -88.032862, "iso_country": "BZ" }, "geometry": { "type": "Point", "coordinates": [ -88.032862, 17.735015 ] } },
{ "type": "Feature", "properties": { "municipality": "Caye Chapel", "type": "medium_airport", "iata_code": "CYC", "latitude_deg": 17.683792, "longitude_deg": -88.044985, "iso_country": "BZ" }, "geometry": { "type": "Point", "coordinates": [ -88.044985, 17.683792 ] } },
{ "type": "Feature", "properties": { "municipality": "Corozal", "type": "medium_airport", "iata_code": "CZH", "latitude_deg": 18.382200241088867, "longitude_deg": -88.411903381347656, "iso_country": "BZ" }, "geometry": { "type": "Point", "coordinates": [ -88.411903381347656, 18.382200241088867 ] } },
{ "type": "Feature", "properties": { "municipality": "Dangriga", "type": "medium_airport", "iata_code": "DGA", "latitude_deg": 16.98251, "longitude_deg": -88.230988, "iso_country": "BZ" }, "geometry": { "type": "Point", "coordinates": [ -88.230988, 16.98251 ] } },
{ "type": "Feature", "properties": { "municipality": "Placencia", "type": "medium_airport", "iata_code": "PLJ", "latitude_deg": 16.536956787109375, "longitude_deg": -88.36151123046875, "iso_country": "BZ" }, "geometry": { "type": "Point", "coordinates": [ -88.36151123046875, 16.536956787109375 ] } },
{ "type": "Feature", "properties": { "municipality": "Punta Gorda", "type": "medium_airport", "iata_code": "PND", "latitude_deg": 16.102399826, "longitude_deg": -88.808296203600008, "iso_country": "BZ" }, "geometry": { "type": "Point", "coordinates": [ -88.808296203600008, 16.102399826 ] } },
{ "type": "Feature", "properties": { "municipality": "Sartaneja", "type": "medium_airport", "iata_code": "SJX", "latitude_deg": 18.356100082397461, "longitude_deg": -88.13079833984375, "iso_country": "BZ" }, "geometry": { "type": "Point", "coordinates": [ -88.13079833984375, 18.356100082397461 ] } },
{ "type": "Feature", "properties": { "municipality": "San Pedro", "type": "medium_airport", "iata_code": "SPR", "latitude_deg": 17.9139, "longitude_deg": -87.9711, "iso_country": "BZ" }, "geometry": { "type": "Point", "coordinates": [ -87.9711, 17.9139 ] } },
{ "type": "Feature", "properties": { "municipality": "Belize City", "type": "medium_airport", "iata_code": "TZA", "latitude_deg": 17.517239, "longitude_deg": -88.195775, "iso_country": "BZ" }, "geometry": { "type": "Point", "coordinates": [ -88.195775, 17.517239 ] } },
{ "type": "Feature", "properties": { "municipality": "Bamfield", "type": "medium_airport", "iata_code": "", "latitude_deg": 48.8206, "longitude_deg": -125.1193, "iso_country": "CA" }, "geometry": { "type": "Point", "coordinates": [ -125.1193, 48.8206 ] } },
{ "type": "Feature", "properties": { "municipality": "Bedwell Harbour", "type": "seaplane_base", "iata_code": "YBW", "latitude_deg": 48.75, "longitude_deg": -123.23300170900001, "iso_country": "CA" }, "geometry": { "type": "Point", "coordinates": [ -123.233001709, 48.75 ] } },
{ "type": "Feature", "properties": { "municipality": "Nanaimo", "type": "seaplane_base", "iata_code": "ZNA", "latitude_deg": 49.169813, "longitude_deg": -123.933845, "iso_country": "CA" }, "geometry": { "type": "Point", "coordinates": [ -123.933845, 49.169813 ] } },
{ "type": "Feature", "properties": { "municipality": "Trail", "type": "small_airport", "iata_code": "YZZ", "latitude_deg": 49.055599, "longitude_deg": -117.609001, "iso_country": "CA" }, "geometry": { "type": "Point", "coordinates": [ -117.609001, 49.055599 ] } },
{ "type": "Feature", "properties": { "municipality": "Whistler", "type": "seaplane_base", "iata_code": "YWS", "latitude_deg": 50.1436004639, "longitude_deg": -122.948997498, "iso_country": "CA" }, "geometry": { "type": "Point", "coordinates": [ -122.948997498, 50.1436004639 ] } },
{ "type": "Feature", "properties": { "municipality": "Anahim Lake", "type": "medium_airport", "iata_code": "YAA", "latitude_deg": 52.451501, "longitude_deg": -125.303776, "iso_country": "CA" }, "geometry": { "type": "Point", "coordinates": [ -125.303776, 52.451501 ] } },
{ "type": "Feature", "properties": { "municipality": "Vancouver", "type": "seaplane_base", "iata_code": "", "latitude_deg": 49.177047, "longitude_deg": -123.168154, "iso_country": "CA" }, "geometry": { "type": "Point", "coordinates": [ -123.168154, 49.177047 ] } },
{ "type": "Feature", "properties": { "municipality": "Salt Spring Island", "type": "seaplane_base", "iata_code": "YGG", "latitude_deg": 48.8545, "longitude_deg": -123.4969, "iso_country": "CA" }, "geometry": { "type": "Point", "coordinates": [ -123.4969, 48.8545 ] } },
{ "type": "Feature", "properties": { "municipality": "Cache Creek", "type": "medium_airport", "iata_code": "YZA", "latitude_deg": 50.775258, "longitude_deg": -121.321314, "iso_country": "CA" }, "geometry": { "type": "Point", "coordinates": [ -121.321314, 50.775258 ] } },
{ "type": "Feature", "properties": { "municipality": "Bella Bella", "type": "medium_airport", "iata_code": "ZEL", "latitude_deg": 52.185001, "longitude_deg": -128.156994, "iso_country": "CA" }, "geometry": { "type": "Point", "coordinates": [ -128.156994, 52.185001 ] } },
{ "type": "Feature", "properties": { "municipality": "Port Alberni", "type": "small_airport", "iata_code": "YPB", "latitude_deg": 49.321899, "longitude_deg": -124.931, "iso_country": "CA" }, "geometry": { "type": "Point", "coordinates": [ -124.931, 49.321899 ] } },
{ "type": "Feature", "properties": { "municipality": "Williams Harbour", "type": "small_airport", "iata_code": "YWM", "latitude_deg": 52.567377, "longitude_deg": -55.784883, "iso_country": "CA" }, "geometry": { "type": "Point", "coordinates": [ -55.784883, 52.567377 ] } },
{ "type": "Feature", "properties": { "municipality": "Postville", "type": "small_airport", "iata_code": "YSO", "latitude_deg": 54.9105, "longitude_deg": -59.78507, "iso_country": "CA" }, "geometry": { "type": "Point", "coordinates": [ -59.78507, 54.9105 ] } },
{ "type": "Feature", "properties": { "municipality": "St. Lewis", "type": "small_airport", "iata_code": "YFX", "latitude_deg": 52.372798919677734, "longitude_deg": -55.673900604248047, "iso_country": "CA" }, "geometry": { "type": "Point", "coordinates": [ -55.673900604248047, 52.372798919677734 ] } },
{ "type": "Feature", "properties": { "municipality": "Port Hope Simpson", "type": "small_airport", "iata_code": "YHA", "latitude_deg": 52.528099060058594, "longitude_deg": -56.286098480224609, "iso_country": "CA" }, "geometry": { "type": "Point", "coordinates": [ -56.286098480224609, 52.528099060058594 ] } },
{ "type": "Feature", "properties": { "municipality": "Campbell River", "type": "heliport", "iata_code": "", "latitude_deg": 50.041322669199999, "longitude_deg": -125.268448144, "iso_country": "CA" }, "geometry": { "type": "Point", "coordinates": [ -125.268448144, 50.041322669199999 ] } },
{ "type": "Feature", "properties": { "municipality": "Comox", "type": "seaplane_base", "iata_code": "", "latitude_deg": 49.670601, "longitude_deg": -124.932999, "iso_country": "CA" }, "geometry": { "type": "Point", "coordinates": [ -124.932999, 49.670601 ] } },
{ "type": "Feature", "properties": { "municipality": "Rigolet", "type": "small_airport", "iata_code": "YRG", "latitude_deg": 54.179698944091797, "longitude_deg": -58.457500457763672, "iso_country": "CA" }, "geometry": { "type": "Point", "coordinates": [ -58.457500457763672, 54.179698944091797 ] } },
{ "type": "Feature", "properties": { "municipality": "Whatì", "type": "small_airport", "iata_code": "YLE", "latitude_deg": 63.131698608398438, "longitude_deg": -117.24600219726562, "iso_country": "CA" }, "geometry": { "type": "Point", "coordinates": [ -117.246002197265625, 63.131698608398438 ] } },
{ "type": "Feature", "properties": { "municipality": "Wekweètì", "type": "small_airport", "iata_code": "YFJ", "latitude_deg": 64.190804, "longitude_deg": -114.077002, "iso_country": "CA" }, "geometry": { "type": "Point", "coordinates": [ -114.077002, 64.190804 ] } },
{ "type": "Feature", "properties": { "municipality": "Summer Beaver", "type": "small_airport", "iata_code": "SUR", "latitude_deg": 52.708599090576172, "longitude_deg": -88.541900634765625, "iso_country": "CA" }, "geometry": { "type": "Point", "coordinates": [ -88.541900634765625, 52.708599090576172 ] } },
{ "type": "Feature", "properties": { "municipality": "Angling Lake", "type": "small_airport", "iata_code": "YAX", "latitude_deg": 53.849201202392578, "longitude_deg": -89.579399108886719, "iso_country": "CA" }, "geometry": { "type": "Point", "coordinates": [ -89.579399108886719, 53.849201202392578 ] } },
{ "type": "Feature", "properties": { "municipality": "Wunnumin Lake", "type": "small_airport", "iata_code": "WNN", "latitude_deg": 52.893901824951172, "longitude_deg": -89.289199829101562, "iso_country": "CA" }, "geometry": { "type": "Point", "coordinates": [ -89.289199829101562, 52.893901824951172 ] } },
{ "type": "Feature", "properties": { "municipality": "North Spirit Lake", "type": "small_airport", "iata_code": "YNO", "latitude_deg": 52.490001678466797, "longitude_deg": -92.971099853515625, "iso_country": "CA" }, "geometry": { "type": "Point", "coordinates": [ -92.971099853515625, 52.490001678466797 ] } },
{ "type": "Feature", "properties": { "municipality": "Sonoma", "type": "heliport", "iata_code": "", "latitude_deg": 38.158228, "longitude_deg": -122.456344, "iso_country": "US" }, "geometry": { "type": "Point", "coordinates": [ -122.456344, 38.158228 ] } },
{ "type": "Feature", "properties": { "municipality": "Tangshan", "type": "small_airport", "iata_code": "TVS", "latitude_deg": 39.717800140400001, "longitude_deg": 118.002624512, "iso_country": "CN" }, "geometry": { "type": "Point", "coordinates": [ 118.002624512, 39.717800140400001 ] } },
{ "type": "Feature", "properties": { "municipality": "Zhangjiakou", "type": "medium_airport", "iata_code": "ZQZ", "latitude_deg": 40.738602, "longitude_deg": 114.93, "iso_country": "CN" }, "geometry": { "type": "Point", "coordinates": [ 114.93, 40.738602 ] } },
{ "type": "Feature", "properties": { "municipality": "Baoshan (Longyang)", "type": "medium_airport", "iata_code": "BSD", "latitude_deg": 25.053301, "longitude_deg": 99.168297, "iso_country": "CN" }, "geometry": { "type": "Point", "coordinates": [ 99.168297, 25.053301 ] } },
{ "type": "Feature", "properties": { "municipality": "Lincang", "type": "medium_airport", "iata_code": "LNJ", "latitude_deg": 23.7381, "longitude_deg": 100.025002, "iso_country": "CN" }, "geometry": { "type": "Point", "coordinates": [ 100.025002, 23.7381 ] } },
{ "type": "Feature", "properties": { "municipality": "Xigazê (Samzhubzê)", "type": "medium_airport", "iata_code": "RKZ", "latitude_deg": 29.3519, "longitude_deg": 89.311401, "iso_country": "CN" }, "geometry": { "type": "Point", "coordinates": [ 89.311401, 29.3519 ] } },
{ "type": "Feature", "properties": { "municipality": "Panzhihua (Renhe)", "type": "medium_airport", "iata_code": "PZI", "latitude_deg": 26.54, "longitude_deg": 101.79852, "iso_country": "CN" }, "geometry": { "type": "Point", "coordinates": [ 101.79852, 26.54 ] } },
{ "type": "Feature", "properties": { "municipality": "Foshan (Nanhai)", "type": "medium_airport", "iata_code": "FUO", "latitude_deg": 23.0833, "longitude_deg": 113.07, "iso_country": "CN" }, "geometry": { "type": "Point", "coordinates": [ 113.07, 23.0833 ] } },
{ "type": "Feature", "properties": { "municipality": "Bazhong (Enyang)", "type": "small_airport", "iata_code": "BZX", "latitude_deg": 31.73842, "longitude_deg": 106.644872, "iso_country": "CN" }, "geometry": { "type": "Point", "coordinates": [ 106.644872, 31.73842 ] } },
{ "type": "Feature", "properties": { "municipality": "Xinyang", "type": "medium_airport", "iata_code": "XAI", "latitude_deg": 32.540819, "longitude_deg": 114.079141, "iso_country": "CN" }, "geometry": { "type": "Point", "coordinates": [ 114.079141, 32.540819 ] } },
{ "type": "Feature", "properties": { "municipality": "Huizhou (Pingtan)", "type": "medium_airport", "iata_code": "HUZ", "latitude_deg": 23.049999, "longitude_deg": 114.599998, "iso_country": "CN" }, "geometry": { "type": "Point", "coordinates": [ 114.599998, 23.049999 ] } },
{ "type": "Feature", "properties": { "municipality": "Shaoguan", "type": "medium_airport", "iata_code": "HSC", "latitude_deg": 24.9786, "longitude_deg": 113.420998, "iso_country": "CN" }, "geometry": { "type": "Point", "coordinates": [ 113.420998, 24.9786 ] } },
{ "type": "Feature", "properties": { "municipality": "Ji'an", "type": "medium_airport", "iata_code": "JGS", "latitude_deg": 26.856899, "longitude_deg": 114.737, "iso_country": "CN" }, "geometry": { "type": "Point", "coordinates": [ 114.737, 26.856899 ] } },
{ "type": "Feature", "properties": { "municipality": "Baise (Tianyang)", "type": "medium_airport", "iata_code": "AEB", "latitude_deg": 23.7206, "longitude_deg": 106.959999, "iso_country": "CN" }, "geometry": { "type": "Point", "coordinates": [ 106.959999, 23.7206 ] } },
{ "type": "Feature", "properties": { "municipality": "Lianyungang", "type": "medium_airport", "iata_code": "LYG", "latitude_deg": 34.41406, "longitude_deg": 119.17899, "iso_country": "CN" }, "geometry": { "type": "Point", "coordinates": [ 119.17899, 34.41406 ] } },
{ "type": "Feature", "properties": { "municipality": "Altay", "type": "medium_airport", "iata_code": "AAT", "latitude_deg": 47.749886, "longitude_deg": 88.085808, "iso_country": "CN" }, "geometry": { "type": "Point", "coordinates": [ 88.085808, 47.749886 ] } },
{ "type": "Feature", "properties": { "municipality": "Fuzhou (Minhou)", "type": "heliport", "iata_code": "", "latitude_deg": 26.123906, "longitude_deg": 119.113959, "iso_country": "CN" }, "geometry": { "type": "Point", "coordinates": [ 119.113959, 26.123906 ] } },
{ "type": "Feature", "properties": { "municipality": "Tianshui (Maiji)", "type": "medium_airport", "iata_code": "THQ", "latitude_deg": 34.559399, "longitude_deg": 105.860001, "iso_country": "CN" }, "geometry": { "type": "Point", "coordinates": [ 105.860001, 34.559399 ] } },
{ "type": "Feature", "properties": { "municipality": "Zhangye (Ganzhou)", "type": "small_airport", "iata_code": "YZY", "latitude_deg": 38.801899, "longitude_deg": 100.675003, "iso_country": "CN" }, "geometry": { "type": "Point", "coordinates": [ 100.675003, 38.801899 ] } },
{ "type": "Feature", "properties": { "municipality": "Zhenxing, Dandong", "type": "medium_airport", "iata_code": "DDG", "latitude_deg": 40.0247, "longitude_deg": 124.286003, "iso_country": "CN" }, "geometry": { "type": "Point", "coordinates": [ 124.286003, 40.0247 ] } },
{ "type": "Feature", "properties": { "municipality": "Zhanjiang", "type": "medium_airport", "iata_code": "ZHA", "latitude_deg": 21.481667, "longitude_deg": 110.590278, "iso_country": "CN" }, "geometry": { "type": "Point", "coordinates": [ 110.590278, 21.481667 ] } },
{ "type": "Feature", "properties": { "municipality": "Zhaosu", "type": "small_airport", "iata_code": "ZFL", "latitude_deg": 43.1075, "longitude_deg": 81.160556, "iso_country": "CN" }, "geometry": { "type": "Point", "coordinates": [ 81.160556, 43.1075 ] } },
{ "type": "Feature", "properties": { "municipality": "Nantong", "type": "medium_airport", "iata_code": "NTG", "latitude_deg": 32.070801, "longitude_deg": 120.975998, "iso_country": "CN" }, "geometry": { "type": "Point", "coordinates": [ 120.975998, 32.070801 ] } },
{ "type": "Feature", "properties": { "municipality": "Bearskin Lake", "type": "small_airport", "iata_code": "XBE", "latitude_deg": 53.965599060058594, "longitude_deg": -91.027198791503906, "iso_country": "CA" }, "geometry": { "type": "Point", "coordinates": [ -91.027198791503906, 53.965599060058594 ] } },
{ "type": "Feature", "properties": { "municipality": "Natuashish", "type": "small_airport", "iata_code": "YNP", "latitude_deg": 55.913898, "longitude_deg": -61.184399, "iso_country": "CA" }, "geometry": { "type": "Point", "coordinates": [ -61.184399, 55.913898 ] } },
{ "type": "Feature", "properties": { "municipality": "Kingfisher Lake", "type": "small_airport", "iata_code": "KIF", "latitude_deg": 53.012500762939453, "longitude_deg": -89.855300903320312, "iso_country": "CA" }, "geometry": { "type": "Point", "coordinates": [ -89.855300903320312, 53.012500762939453 ] } },
{ "type": "Feature", "properties": { "municipality": "Ogoki Post", "type": "small_airport", "iata_code": "YOG", "latitude_deg": 51.6585998535, "longitude_deg": -85.901702880900004, "iso_country": "CA" }, "geometry": { "type": "Point", "coordinates": [ -85.901702880900004, 51.6585998535 ] } },
{ "type": "Feature", "properties": { "municipality": "La Chorrera", "type": "small_airport", "iata_code": "LCR", "latitude_deg": -0.733333, "longitude_deg": -73.01667, "iso_country": "CO" }, "geometry": { "type": "Point", "coordinates": [ -73.01667, -0.733333 ] } },
{ "type": "Feature", "properties": { "municipality": "Tarapacá", "type": "small_airport", "iata_code": "TCD", "latitude_deg": -2.894722, "longitude_deg": -69.747222, "iso_country": "CO" }, "geometry": { "type": "Point", "coordinates": [ -69.747222, -2.894722 ] } },
{ "type": "Feature", "properties": { "municipality": "Poplar Hill", "type": "small_airport", "iata_code": "YHP", "latitude_deg": 52.1133, "longitude_deg": -94.2556, "iso_country": "CA" }, "geometry": { "type": "Point", "coordinates": [ -94.2556, 52.1133 ] } },
{ "type": "Feature", "properties": { "municipality": "Streatham", "type": "small_airport", "iata_code": "", "latitude_deg": 53.822569, "longitude_deg": -126.172957, "iso_country": "CA" }, "geometry": { "type": "Point", "coordinates": [ -126.172957, 53.822569 ] } },
{ "type": "Feature", "properties": { "municipality": "Chisasibi", "type": "small_airport", "iata_code": "YKU", "latitude_deg": 53.805599212646484, "longitude_deg": -78.916900634765625, "iso_country": "CA" }, "geometry": { "type": "Point", "coordinates": [ -78.916900634765625, 53.805599212646484 ] } },
{ "type": "Feature", "properties": { "municipality": "Tête-à-la-Baleine", "type": "small_airport", "iata_code": "ZTB", "latitude_deg": 50.674400329589844, "longitude_deg": -59.383598327636719, "iso_country": "CA" }, "geometry": { "type": "Point", "coordinates": [ -59.383598327636719, 50.674400329589844 ] } },
{ "type": "Feature", "properties": { "municipality": "La Tabatière", "type": "small_airport", "iata_code": "ZLT", "latitude_deg": 50.830799102783203, "longitude_deg": -58.975601196289062, "iso_country": "CA" }, "geometry": { "type": "Point", "coordinates": [ -58.975601196289062, 50.830799102783203 ] } },
{ "type": "Feature", "properties": { "municipality": "Geçitkale", "type": "medium_airport", "iata_code": "GEC", "latitude_deg": 35.235947, "longitude_deg": 33.724358, "iso_country": "CY" }, "geometry": { "type": "Point", "coordinates": [ 33.724358, 35.235947 ] } },
{ "type": "Feature", "properties": { "municipality": "Arctic Bay", "type": "small_airport", "iata_code": "YAB", "latitude_deg": 73.006101, "longitude_deg": -85.04616, "iso_country": "CA" }, "geometry": { "type": "Point", "coordinates": [ -85.04616, 73.006101 ] } },
{ "type": "Feature", "properties": { "municipality": "Cat Lake", "type": "medium_airport", "iata_code": "YAC", "latitude_deg": 51.727199554443359, "longitude_deg": -91.82440185546875, "iso_country": "CA" }, "geometry": { "type": "Point", "coordinates": [ -91.82440185546875, 51.727199554443359 ] } },
{ "type": "Feature", "properties": { "municipality": "Fort Frances", "type": "medium_airport", "iata_code": "YAG", "latitude_deg": 48.655749, "longitude_deg": -93.44349, "iso_country": "CA" }, "geometry": { "type": "Point", "coordinates": [ -93.44349, 48.655749 ] } },
{ "type": "Feature", "properties": { "municipality": "Alert Bay", "type": "medium_airport", "iata_code": "YAL", "latitude_deg": 50.582199, "longitude_deg": -126.916, "iso_country": "CA" }, "geometry": { "type": "Point", "coordinates": [ -126.916, 50.582199 ] } },
{ "type": "Feature", "properties": { "municipality": "Sault Ste Marie", "type": "medium_airport", "iata_code": "YAM", "latitude_deg": 46.485001, "longitude_deg": -84.509399, "iso_country": "CA" }, "geometry": { "type": "Point", "coordinates": [ -84.509399, 46.485001 ] } },
{ "type": "Feature", "properties": { "municipality": "Kasabonika", "type": "medium_airport", "iata_code": "XKS", "latitude_deg": 53.524700164794922, "longitude_deg": -88.642799377441406, "iso_country": "CA" }, "geometry": { "type": "Point", "coordinates": [ -88.642799377441406, 53.524700164794922 ] } },
{ "type": "Feature", "properties": { "municipality": "Kangirsuk", "type": "medium_airport", "iata_code": "YKG", "latitude_deg": 60.027198791503906, "longitude_deg": -69.999198913574219, "iso_country": "CA" }, "geometry": { "type": "Point", "coordinates": [ -69.999198913574219, 60.027198791503906 ] } },
{ "type": "Feature", "properties": { "municipality": "Attawapiskat", "type": "medium_airport", "iata_code": "YAT", "latitude_deg": 52.927501678466797, "longitude_deg": -82.431900024414062, "iso_country": "CA" }, "geometry": { "type": "Point", "coordinates": [ -82.431900024414062, 52.927501678466797 ] } },
{ "type": "Feature", "properties": { "municipality": "Lac Du Bonnet", "type": "medium_airport", "iata_code": "", "latitude_deg": 50.294399, "longitude_deg": -96.010002, "iso_country": "CA" }, "geometry": { "type": "Point", "coordinates": [ -96.010002, 50.294399 ] } },
{ "type": "Feature", "properties": { "municipality": "St. Anthony", "type": "medium_airport", "iata_code": "YAY", "latitude_deg": 51.391909, "longitude_deg": -56.08321, "iso_country": "CA" }, "geometry": { "type": "Point", "coordinates": [ -56.08321, 51.391909 ] } },
{ "type": "Feature", "properties": { "municipality": "Tofino", "type": "medium_airport", "iata_code": "YAZ", "latitude_deg": 49.079833, "longitude_deg": -125.775583, "iso_country": "CA" }, "geometry": { "type": "Point", "coordinates": [ -125.775583, 49.079833 ] } },
{ "type": "Feature", "properties": { "municipality": "Kugaaruk", "type": "medium_airport", "iata_code": "YBB", "latitude_deg": 68.534401, "longitude_deg": -89.808098, "iso_country": "CA" }, "geometry": { "type": "Point", "coordinates": [ -89.808098, 68.534401 ] } },
{ "type": "Feature", "properties": { "municipality": "Baie-Comeau", "type": "medium_airport", "iata_code": "YBC", "latitude_deg": 49.1325, "longitude_deg": -68.204399, "iso_country": "CA" }, "geometry": { "type": "Point", "coordinates": [ -68.204399, 49.1325 ] } },
{ "type": "Feature", "properties": { "municipality": "Bella Coola", "type": "medium_airport", "iata_code": "QBC", "latitude_deg": 52.387501, "longitude_deg": -126.596001, "iso_country": "CA" }, "geometry": { "type": "Point", "coordinates": [ -126.596001, 52.387501 ] } },
{ "type": "Feature", "properties": { "municipality": "Uranium City", "type": "medium_airport", "iata_code": "YBE", "latitude_deg": 59.5614013671875, "longitude_deg": -108.48100280761719, "iso_country": "CA" }, "geometry": { "type": "Point", "coordinates": [ -108.481002807617188, 59.5614013671875 ] } },
{ "type": "Feature", "properties": { "municipality": "Bonnyville", "type": "medium_airport", "iata_code": "YBY", "latitude_deg": 54.304199, "longitude_deg": -110.744003, "iso_country": "CA" }, "geometry": { "type": "Point", "coordinates": [ -110.744003, 54.304199 ] } },
{ "type": "Feature", "properties": { "municipality": "Bagotville", "type": "medium_airport", "iata_code": "YBG", "latitude_deg": 48.330600738525391, "longitude_deg": -70.99639892578125, "iso_country": "CA" }, "geometry": { "type": "Point", "coordinates": [ -70.99639892578125, 48.330600738525391 ] } },
{ "type": "Feature", "properties": { "municipality": "Baker Lake", "type": "medium_airport", "iata_code": "YBK", "latitude_deg": 64.298896789600008, "longitude_deg": -96.077796936, "iso_country": "CA" }, "geometry": { "type": "Point", "coordinates": [ -96.077796936, 64.298896789600008 ] } },
{ "type": "Feature", "properties": { "municipality": "Campbell River", "type": "medium_airport", "iata_code": "YBL", "latitude_deg": 49.950802, "longitude_deg": -125.271004, "iso_country": "CA" }, "geometry": { "type": "Point", "coordinates": [ -125.271004, 49.950802 ] } },
{ "type": "Feature", "properties": { "municipality": "Tadoule Lake", "type": "medium_airport", "iata_code": "XTL", "latitude_deg": 58.7061, "longitude_deg": -98.512199, "iso_country": "CA" }, "geometry": { "type": "Point", "coordinates": [ -98.512199, 58.7061 ] } },
{ "type": "Feature", "properties": { "municipality": "Brandon", "type": "medium_airport", "iata_code": "YBR", "latitude_deg": 49.91, "longitude_deg": -99.951897, "iso_country": "CA" }, "geometry": { "type": "Point", "coordinates": [ -99.951897, 49.91 ] } },
{ "type": "Feature", "properties": { "municipality": "Brochet", "type": "medium_airport", "iata_code": "YBT", "latitude_deg": 57.8894, "longitude_deg": -101.679001, "iso_country": "CA" }, "geometry": { "type": "Point", "coordinates": [ -101.679001, 57.8894 ] } },
{ "type": "Feature", "properties": { "municipality": "Berens River", "type": "medium_airport", "iata_code": "YBV", "latitude_deg": 52.358898, "longitude_deg": -97.018303, "iso_country": "CA" }, "geometry": { "type": "Point", "coordinates": [ -97.018303, 52.358898 ] } },
{ "type": "Feature", "properties": { "municipality": "Blanc-Sablon", "type": "medium_airport", "iata_code": "YBX", "latitude_deg": 51.4436, "longitude_deg": -57.185299, "iso_country": "CA" }, "geometry": { "type": "Point", "coordinates": [ -57.185299, 51.4436 ] } },
{ "type": "Feature", "properties": { "municipality": "Cartwright", "type": "medium_airport", "iata_code": "YRF", "latitude_deg": 53.682501, "longitude_deg": -57.042303, "iso_country": "CA" }, "geometry": { "type": "Point", "coordinates": [ -57.042303, 53.682501 ] } },
{ "type": "Feature", "properties": { "municipality": "Cambridge Bay", "type": "medium_airport", "iata_code": "YCB", "latitude_deg": 69.108100891099994, "longitude_deg": -105.138000488, "iso_country": "CA" }, "geometry": { "type": "Point", "coordinates": [ -105.138000488, 69.108100891099994 ] } },
{ "type": "Feature", "properties": { "municipality": "Nanaimo", "type": "medium_airport", "iata_code": "YCD", "latitude_deg": 49.05497, "longitude_deg": -123.869863, "iso_country": "CA" }, "geometry": { "type": "Point", "coordinates": [ -123.869863, 49.05497 ] } },
{ "type": "Feature", "properties": { "municipality": "Castlegar", "type": "medium_airport", "iata_code": "YCG", "latitude_deg": 49.296398162800003, "longitude_deg": -117.63200378400001, "iso_country": "CA" }, "geometry": { "type": "Point", "coordinates": [ -117.632003784, 49.296398162800003 ] } },
{ "type": "Feature", "properties": { "municipality": "Miramichi", "type": "medium_airport", "iata_code": "YCH", "latitude_deg": 47.007801, "longitude_deg": -65.449203, "iso_country": "CA" }, "geometry": { "type": "Point", "coordinates": [ -65.449203, 47.007801 ] } },
{ "type": "Feature", "properties": { "municipality": "Charlo", "type": "medium_airport", "iata_code": "YCL", "latitude_deg": 47.990799, "longitude_deg": -66.330299, "iso_country": "CA" }, "geometry": { "type": "Point", "coordinates": [ -66.330299, 47.990799 ] } },
{ "type": "Feature", "properties": { "municipality": "Kugluktuk", "type": "medium_airport", "iata_code": "YCO", "latitude_deg": 67.816704, "longitude_deg": -115.143997, "iso_country": "CA" }, "geometry": { "type": "Point", "coordinates": [ -115.143997, 67.816704 ] } },
{ "type": "Feature", "properties": { "municipality": "Chesterfield Inlet", "type": "medium_airport", "iata_code": "YCS", "latitude_deg": 63.346900939899996, "longitude_deg": -90.731101989700008, "iso_country": "CA" }, "geometry": { "type": "Point", "coordinates": [ -90.731101989700008, 63.346900939899996 ] } },
{ "type": "Feature", "properties": { "municipality": "Clyde River", "type": "medium_airport", "iata_code": "YCY", "latitude_deg": 70.486099243200002, "longitude_deg": -68.516700744600001, "iso_country": "CA" }, "geometry": { "type": "Point", "coordinates": [ -68.516700744600001, 70.486099243200002 ] } },
{ "type": "Feature", "properties": { "municipality": "Dawson City", "type": "medium_airport", "iata_code": "YDA", "latitude_deg": 64.043098449707031, "longitude_deg": -139.12800598144531, "iso_country": "CA" }, "geometry": { "type": "Point", "coordinates": [ -139.128005981445312, 64.043098449707031 ] } },
{ "type": "Feature", "properties": { "municipality": "Deer Lake", "type": "medium_airport", "iata_code": "YDF", "latitude_deg": 49.210800170898438, "longitude_deg": -57.391399383544922, "iso_country": "CA" }, "geometry": { "type": "Point", "coordinates": [ -57.391399383544922, 49.210800170898438 ] } },
{ "type": "Feature", "properties": { "municipality": "Dauphin", "type": "medium_airport", "iata_code": "YDN", "latitude_deg": 51.100799560546875, "longitude_deg": -100.052001953125, "iso_country": "CA" }, "geometry": { "type": "Point", "coordinates": [ -100.052001953125, 51.100799560546875 ] } },
{ "type": "Feature", "properties": { "municipality": "Nain", "type": "medium_airport", "iata_code": "YDP", "latitude_deg": 56.550778, "longitude_deg": -61.682224, "iso_country": "CA" }, "geometry": { "type": "Point", "coordinates": [ -61.682224, 56.550778 ] } },
{ "type": "Feature", "properties": { "municipality": "Dawson Creek", "type": "medium_airport", "iata_code": "YDQ", "latitude_deg": 55.742298126220703, "longitude_deg": -120.18299865722656, "iso_country": "CA" }, "geometry": { "type": "Point", "coordinates": [ -120.182998657226562, 55.742298126220703 ] } },
{ "type": "Feature", "properties": { "municipality": "Edmonton", "type": "large_airport", "iata_code": "YEG", "latitude_deg": 53.309700012200004, "longitude_deg": -113.580001831, "iso_country": "CA" }, "geometry": { "type": "Point", "coordinates": [ -113.580001831, 53.309700012200004 ] } },
{ "type": "Feature", "properties": { "municipality": "Arviat", "type": "medium_airport", "iata_code": "YEK", "latitude_deg": 61.094200134300003, "longitude_deg": -94.070800781199992, "iso_country": "CA" }, "geometry": { "type": "Point", "coordinates": [ -94.070800781199992, 61.094200134300003 ] } },
{ "type": "Feature", "properties": { "municipality": "Fort Severn", "type": "medium_airport", "iata_code": "YER", "latitude_deg": 56.018901824951172, "longitude_deg": -87.676101684570312, "iso_country": "CA" }, "geometry": { "type": "Point", "coordinates": [ -87.676101684570312, 56.018901824951172 ] } },
{ "type": "Feature", "properties": { "municipality": "Inuvik", "type": "medium_airport", "iata_code": "YEV", "latitude_deg": 68.304199218800008, "longitude_deg": -133.48300170900001, "iso_country": "CA" }, "geometry": { "type": "Point", "coordinates": [ -133.483001709, 68.304199218800008 ] } },
{ "type": "Feature", "properties": { "municipality": "Fort Albany", "type": "medium_airport", "iata_code": "YFA", "latitude_deg": 52.201400756835938, "longitude_deg": -81.6968994140625, "iso_country": "CA" }, "geometry": { "type": "Point", "coordinates": [ -81.6968994140625, 52.201400756835938 ] } },
{ "type": "Feature", "properties": { "municipality": "Iqaluit", "type": "medium_airport", "iata_code": "YFB", "latitude_deg": 63.756402, "longitude_deg": -68.555801, "iso_country": "CA" }, "geometry": { "type": "Point", "coordinates": [ -68.555801, 63.756402 ] } },
{ "type": "Feature", "properties": { "municipality": "Fredericton", "type": "medium_airport", "iata_code": "YFC", "latitude_deg": 45.868900299072266, "longitude_deg": -66.537200927734375, "iso_country": "CA" }, "geometry": { "type": "Point", "coordinates": [ -66.537200927734375, 45.868900299072266 ] } },
{ "type": "Feature", "properties": { "municipality": "Fort Hope", "type": "medium_airport", "iata_code": "YFH", "latitude_deg": 51.561901092529297, "longitude_deg": -87.907798767089844, "iso_country": "CA" }, "geometry": { "type": "Point", "coordinates": [ -87.907798767089844, 51.561901092529297 ] } },
{ "type": "Feature", "properties": { "municipality": "La Macaza", "type": "medium_airport", "iata_code": "YTM", "latitude_deg": 46.409401, "longitude_deg": -74.779999, "iso_country": "CA" }, "geometry": { "type": "Point", "coordinates": [ -74.779999, 46.409401 ] } },
{ "type": "Feature", "properties": { "municipality": "Flin Flon", "type": "medium_airport", "iata_code": "YFO", "latitude_deg": 54.6781005859375, "longitude_deg": -101.68199920654297, "iso_country": "CA" }, "geometry": { "type": "Point", "coordinates": [ -101.681999206542969, 54.6781005859375 ] } },
{ "type": "Feature", "properties": { "municipality": "Fort Simpson", "type": "medium_airport", "iata_code": "YFS", "latitude_deg": 61.760200500488281, "longitude_deg": -121.23699951171875, "iso_country": "CA" }, "geometry": { "type": "Point", "coordinates": [ -121.23699951171875, 61.760200500488281 ] } },
{ "type": "Feature", "properties": { "municipality": "Makkovik", "type": "medium_airport", "iata_code": "YMN", "latitude_deg": 55.077335, "longitude_deg": -59.187942, "iso_country": "CA" }, "geometry": { "type": "Point", "coordinates": [ -59.187942, 55.077335 ] } },
{ "type": "Feature", "properties": { "municipality": "Texada", "type": "medium_airport", "iata_code": "YGB", "latitude_deg": 49.694198608398438, "longitude_deg": -124.51799774169922, "iso_country": "CA" }, "geometry": { "type": "Point", "coordinates": [ -124.517997741699219, 49.694198608398438 ] } },
{ "type": "Feature", "properties": { "municipality": "Fort Good Hope", "type": "medium_airport", "iata_code": "YGH", "latitude_deg": 66.240798950195312, "longitude_deg": -128.6510009765625, "iso_country": "CA" }, "geometry": { "type": "Point", "coordinates": [ -128.6510009765625, 66.240798950195312 ] } },
{ "type": "Feature", "properties": { "municipality": "Kingston", "type": "medium_airport", "iata_code": "YGK", "latitude_deg": 44.225299835205078, "longitude_deg": -76.596900939941406, "iso_country": "CA" }, "geometry": { "type": "Point", "coordinates": [ -76.596900939941406, 44.225299835205078 ] } },
{ "type": "Feature", "properties": { "municipality": "La Grande Rivière", "type": "medium_airport", "iata_code": "YGL", "latitude_deg": 53.625301361083984, "longitude_deg": -77.704200744628906, "iso_country": "CA" }, "geometry": { "type": "Point", "coordinates": [ -77.704200744628906, 53.625301361083984 ] } },
{ "type": "Feature", "properties": { "municipality": "Gods Lake Narrows", "type": "medium_airport", "iata_code": "YGO", "latitude_deg": 54.55889892578125, "longitude_deg": -94.491401672363281, "iso_country": "CA" }, "geometry": { "type": "Point", "coordinates": [ -94.491401672363281, 54.55889892578125 ] } },
{ "type": "Feature", "properties": { "municipality": "Gaspé", "type": "medium_airport", "iata_code": "YGP", "latitude_deg": 48.775299072300001, "longitude_deg": -64.478599548299997, "iso_country": "CA" }, "geometry": { "type": "Point", "coordinates": [ -64.478599548299997, 48.775299072300001 ] } },
{ "type": "Feature", "properties": { "municipality": "Les Îles-de-la-Madeleine", "type": "medium_airport", "iata_code": "YGR", "latitude_deg": 47.425242, "longitude_deg": -61.778612, "iso_country": "CA" }, "geometry": { "type": "Point", "coordinates": [ -61.778612, 47.425242 ] } },
{ "type": "Feature", "properties": { "municipality": "Igloolik", "type": "medium_airport", "iata_code": "YGT", "latitude_deg": 69.364700317399993, "longitude_deg": -81.816101074200006, "iso_country": "CA" }, "geometry": { "type": "Point", "coordinates": [ -81.816101074200006, 69.364700317399993 ] } },
{ "type": "Feature", "properties": { "municipality": "Kuujjuarapik", "type": "medium_airport", "iata_code": "YGW", "latitude_deg": 55.281898498535156, "longitude_deg": -77.765296936035156, "iso_country": "CA" }, "geometry": { "type": "Point", "coordinates": [ -77.765296936035156, 55.281898498535156 ] } },
{ "type": "Feature", "properties": { "municipality": "Gillam", "type": "medium_airport", "iata_code": "YGX", "latitude_deg": 56.357498168945312, "longitude_deg": -94.710601806640625, "iso_country": "CA" }, "geometry": { "type": "Point", "coordinates": [ -94.710601806640625, 56.357498168945312 ] } },
{ "type": "Feature", "properties": { "municipality": "Grise Fiord", "type": "medium_airport", "iata_code": "YGZ", "latitude_deg": 76.426101684599999, "longitude_deg": -82.909202575700007, "iso_country": "CA" }, "geometry": { "type": "Point", "coordinates": [ -82.909202575700007, 76.426101684599999 ] } },
{ "type": "Feature", "properties": { "municipality": "Quaqtaq", "type": "medium_airport", "iata_code": "YQC", "latitude_deg": 61.046398162841797, "longitude_deg": -69.6177978515625, "iso_country": "CA" }, "geometry": { "type": "Point", "coordinates": [ -69.6177978515625, 61.046398162841797 ] } },
{ "type": "Feature", "properties": { "municipality": "Vancouver", "type": "seaplane_base", "iata_code": "CXH", "latitude_deg": 49.291265, "longitude_deg": -123.11717, "iso_country": "CA" }, "geometry": { "type": "Point", "coordinates": [ -123.11717, 49.291265 ] } },
{ "type": "Feature", "properties": { "municipality": "Dryden", "type": "medium_airport", "iata_code": "YHD", "latitude_deg": 49.831699, "longitude_deg": -92.744202, "iso_country": "CA" }, "geometry": { "type": "Point", "coordinates": [ -92.744202, 49.831699 ] } },
{ "type": "Feature", "properties": { "municipality": "Nemiscau", "type": "medium_airport", "iata_code": "YNS", "latitude_deg": 51.69110107421875, "longitude_deg": -76.135597229003906, "iso_country": "CA" }, "geometry": { "type": "Point", "coordinates": [ -76.135597229003906, 51.69110107421875 ] } },
{ "type": "Feature", "properties": { "municipality": "Ulukhaktok", "type": "medium_airport", "iata_code": "YHI", "latitude_deg": 70.762802124023438, "longitude_deg": -117.80599975585938, "iso_country": "CA" }, "geometry": { "type": "Point", "coordinates": [ -117.805999755859375, 70.762802124023438 ] } },
{ "type": "Feature", "properties": { "municipality": "Gjoa Haven", "type": "medium_airport", "iata_code": "YHK", "latitude_deg": 68.635597228999998, "longitude_deg": -95.849700927700013, "iso_country": "CA" }, "geometry": { "type": "Point", "coordinates": [ -95.849700927700013, 68.635597229 ] } },
{ "type": "Feature", "properties": { "municipality": "Hamilton", "type": "medium_airport", "iata_code": "YHM", "latitude_deg": 43.173599243199995, "longitude_deg": -79.934997558599989, "iso_country": "CA" }, "geometry": { "type": "Point", "coordinates": [ -79.934997558599989, 43.173599243199995 ] } },
{ "type": "Feature", "properties": { "municipality": "Hopedale", "type": "medium_airport", "iata_code": "YHO", "latitude_deg": 55.448757, "longitude_deg": -60.228124, "iso_country": "CA" }, "geometry": { "type": "Point", "coordinates": [ -60.228124, 55.448757 ] } },
{ "type": "Feature", "properties": { "municipality": "Chevery", "type": "medium_airport", "iata_code": "YHR", "latitude_deg": 50.468898773193359, "longitude_deg": -59.636699676513672, "iso_country": "CA" }, "geometry": { "type": "Point", "coordinates": [ -59.636699676513672, 50.468898773193359 ] } },
{ "type": "Feature", "properties": { "municipality": "Montréal", "type": "medium_airport", "iata_code": "YHU", "latitude_deg": 45.517501831099999, "longitude_deg": -73.416900634800001, "iso_country": "CA" }, "geometry": { "type": "Point", "coordinates": [ -73.416900634800001, 45.517501831099999 ] } },
{ "type": "Feature", "properties": { "municipality": "Hay River", "type": "medium_airport", "iata_code": "YHY", "latitude_deg": 60.839698791499998, "longitude_deg": -115.782997131, "iso_country": "CA" }, "geometry": { "type": "Point", "coordinates": [ -115.782997131, 60.839698791499998 ] } },
{ "type": "Feature", "properties": { "municipality": "Halifax", "type": "large_airport", "iata_code": "YHZ", "latitude_deg": 44.880798339800002, "longitude_deg": -63.508598327599998, "iso_country": "CA" }, "geometry": { "type": "Point", "coordinates": [ -63.508598327599998, 44.880798339800002 ] } },
{ "type": "Feature", "properties": { "municipality": "Ivujivik", "type": "medium_airport", "iata_code": "YIK", "latitude_deg": 62.417301177978516, "longitude_deg": -77.925300598144531, "iso_country": "CA" }, "geometry": { "type": "Point", "coordinates": [ -77.925300598144531, 62.417301177978516 ] } },
{ "type": "Feature", "properties": { "municipality": "Pond Inlet", "type": "medium_airport", "iata_code": "YIO", "latitude_deg": 72.683296203599994, "longitude_deg": -77.966697692899999, "iso_country": "CA" }, "geometry": { "type": "Point", "coordinates": [ -77.966697692899999, 72.683296203599994 ] } },
{ "type": "Feature", "properties": { "municipality": "Island Lake", "type": "medium_airport", "iata_code": "YIV", "latitude_deg": 53.857200622558594, "longitude_deg": -94.653602600097656, "iso_country": "CA" }, "geometry": { "type": "Point", "coordinates": [ -94.653602600097656, 53.857200622558594 ] } },
{ "type": "Feature", "properties": { "municipality": "Stephenville", "type": "medium_airport", "iata_code": "YJT", "latitude_deg": 48.544200897216797, "longitude_deg": -58.549999237060547, "iso_country": "CA" }, "geometry": { "type": "Point", "coordinates": [ -58.549999237060547, 48.544200897216797 ] } },
{ "type": "Feature", "properties": { "municipality": "Kamloops", "type": "medium_airport", "iata_code": "YKA", "latitude_deg": 50.702201843300003, "longitude_deg": -120.44400024399999, "iso_country": "CA" }, "geometry": { "type": "Point", "coordinates": [ -120.444000244, 50.702201843300003 ] } },
{ "type": "Feature", "properties": { "municipality": "Aklavik", "type": "medium_airport", "iata_code": "LAK", "latitude_deg": 68.223297, "longitude_deg": -135.00599, "iso_country": "CA" }, "geometry": { "type": "Point", "coordinates": [ -135.00599, 68.223297 ] } },
{ "type": "Feature", "properties": { "municipality": "Kitchener", "type": "medium_airport", "iata_code": "YKF", "latitude_deg": 43.460800170899994, "longitude_deg": -80.378601074200006, "iso_country": "CA" }, "geometry": { "type": "Point", "coordinates": [ -80.378601074200006, 43.460800170899994 ] } },
{ "type": "Feature", "properties": { "municipality": "Kangiqsujuaq", "type": "medium_airport", "iata_code": "YWB", "latitude_deg": 61.588600158699997, "longitude_deg": -71.929397582999997, "iso_country": "CA" }, "geometry": { "type": "Point", "coordinates": [ -71.929397583, 61.588600158699997 ] } },
{ "type": "Feature", "properties": { "municipality": "Schefferville", "type": "medium_airport", "iata_code": "YKL", "latitude_deg": 54.805301666259766, "longitude_deg": -66.8052978515625, "iso_country": "CA" }, "geometry": { "type": "Point", "coordinates": [ -66.8052978515625, 54.805301666259766 ] } },
{ "type": "Feature", "properties": { "municipality": "Akulivik", "type": "medium_airport", "iata_code": "AKV", "latitude_deg": 60.818599700927734, "longitude_deg": -78.148597717285156, "iso_country": "CA" }, "geometry": { "type": "Point", "coordinates": [ -78.148597717285156, 60.818599700927734 ] } },
{ "type": "Feature", "properties": { "municipality": "Waskaganish", "type": "medium_airport", "iata_code": "YKQ", "latitude_deg": 51.473300933837891, "longitude_deg": -78.75830078125, "iso_country": "CA" }, "geometry": { "type": "Point", "coordinates": [ -78.75830078125, 51.473300933837891 ] } },
{ "type": "Feature", "properties": { "municipality": "Aupaluk", "type": "medium_airport", "iata_code": "YPJ", "latitude_deg": 59.296699523925781, "longitude_deg": -69.599700927734375, "iso_country": "CA" }, "geometry": { "type": "Point", "coordinates": [ -69.599700927734375, 59.296699523925781 ] } },
{ "type": "Feature", "properties": { "municipality": "Kimmirut", "type": "medium_airport", "iata_code": "YLC", "latitude_deg": 62.848253, "longitude_deg": -69.877853, "iso_country": "CA" }, "geometry": { "type": "Point", "coordinates": [ -69.877853, 62.848253 ] } },
{ "type": "Feature", "properties": { "municipality": "Lansdowne House", "type": "medium_airport", "iata_code": "YLH", "latitude_deg": 52.195598602294922, "longitude_deg": -87.934196472167969, "iso_country": "CA" }, "geometry": { "type": "Point", "coordinates": [ -87.934196472167969, 52.195598602294922 ] } },
{ "type": "Feature", "properties": { "municipality": "Lutselk'e", "type": "medium_airport", "iata_code": "YSG", "latitude_deg": 62.418303, "longitude_deg": -110.681998, "iso_country": "CA" }, "geometry": { "type": "Point", "coordinates": [ -110.681998, 62.418303 ] } },
{ "type": "Feature", "properties": { "municipality": "Lloydminster", "type": "medium_airport", "iata_code": "YLL", "latitude_deg": 53.309200286865234, "longitude_deg": -110.072998046875, "iso_country": "CA" }, "geometry": { "type": "Point", "coordinates": [ -110.072998046875, 53.309200286865234 ] } },
{ "type": "Feature", "properties": { "municipality": "Kangiqsualujjuaq", "type": "medium_airport", "iata_code": "XGR", "latitude_deg": 58.711399, "longitude_deg": -65.992798, "iso_country": "CA" }, "geometry": { "type": "Point", "coordinates": [ -65.992798, 58.711399 ] } },
{ "type": "Feature", "properties": { "municipality": "Kelowna", "type": "medium_airport", "iata_code": "YLW", "latitude_deg": 49.9561, "longitude_deg": -119.377998, "iso_country": "CA" }, "geometry": { "type": "Point", "coordinates": [ -119.377998, 49.9561 ] } },
{ "type": "Feature", "properties": { "municipality": "Mary's Harbour", "type": "medium_airport", "iata_code": "YMH", "latitude_deg": 52.302837, "longitude_deg": -55.847626, "iso_country": "CA" }, "geometry": { "type": "Point", "coordinates": [ -55.847626, 52.302837 ] } },
{ "type": "Feature", "properties": { "municipality": "Fort McMurray", "type": "medium_airport", "iata_code": "YMM", "latitude_deg": 56.653301239000001, "longitude_deg": -111.222000122, "iso_country": "CA" }, "geometry": { "type": "Point", "coordinates": [ -111.222000122, 56.653301239 ] } },
{ "type": "Feature", "properties": { "municipality": "Moosonee", "type": "medium_airport", "iata_code": "YMO", "latitude_deg": 51.291099548339844, "longitude_deg": -80.607803344726562, "iso_country": "CA" }, "geometry": { "type": "Point", "coordinates": [ -80.607803344726562, 51.291099548339844 ] } },
{ "type": "Feature", "properties": { "municipality": "Chibougamau", "type": "medium_airport", "iata_code": "YMT", "latitude_deg": 49.771900177001953, "longitude_deg": -74.528099060058594, "iso_country": "CA" }, "geometry": { "type": "Point", "coordinates": [ -74.528099060058594, 49.771900177001953 ] } },
{ "type": "Feature", "properties": { "municipality": "Umiujaq", "type": "medium_airport", "iata_code": "YUD", "latitude_deg": 56.536098480224609, "longitude_deg": -76.518302917480469, "iso_country": "CA" }, "geometry": { "type": "Point", "coordinates": [ -76.518302917480469, 56.536098480224609 ] } },
{ "type": "Feature", "properties": { "municipality": "Natashquan", "type": "medium_airport", "iata_code": "YNA", "latitude_deg": 50.189998626708984, "longitude_deg": -61.789199829101562, "iso_country": "CA" }, "geometry": { "type": "Point", "coordinates": [ -61.789199829101562, 50.189998626708984 ] } },
{ "type": "Feature", "properties": { "municipality": "Wemindji", "type": "medium_airport", "iata_code": "YNC", "latitude_deg": 53.010601043701172, "longitude_deg": -78.831100463867188, "iso_country": "CA" }, "geometry": { "type": "Point", "coordinates": [ -78.831100463867188, 53.010601043701172 ] } },
{ "type": "Feature", "properties": { "municipality": "Gatineau", "type": "medium_airport", "iata_code": "YND", "latitude_deg": 45.521702, "longitude_deg": -75.563599, "iso_country": "CA" }, "geometry": { "type": "Point", "coordinates": [ -75.563599, 45.521702 ] } },
{ "type": "Feature", "properties": { "municipality": "Norway House", "type": "medium_airport", "iata_code": "YNE", "latitude_deg": 53.958301544189453, "longitude_deg": -97.844200134277344, "iso_country": "CA" }, "geometry": { "type": "Point", "coordinates": [ -97.844200134277344, 53.958301544189453 ] } },
{ "type": "Feature", "properties": { "municipality": "Points North Landing", "type": "medium_airport", "iata_code": "YNL", "latitude_deg": 58.276699066162109, "longitude_deg": -104.08200073242188, "iso_country": "CA" }, "geometry": { "type": "Point", "coordinates": [ -104.082000732421875, 58.276699066162109 ] } },
{ "type": "Feature", "properties": { "municipality": "Old Crow", "type": "medium_airport", "iata_code": "YOC", "latitude_deg": 67.570602416992188, "longitude_deg": -139.83900451660156, "iso_country": "CA" }, "geometry": { "type": "Point", "coordinates": [ -139.839004516601562, 67.570602416992188 ] } },
{ "type": "Feature", "properties": { "municipality": "Oxford House", "type": "medium_airport", "iata_code": "YOH", "latitude_deg": 54.933300018310547, "longitude_deg": -95.278900146484375, "iso_country": "CA" }, "geometry": { "type": "Point", "coordinates": [ -95.278900146484375, 54.933300018310547 ] } },
{ "type": "Feature", "properties": { "municipality": "High Level", "type": "medium_airport", "iata_code": "YOJ", "latitude_deg": 58.62139892578125, "longitude_deg": -117.16500091552734, "iso_country": "CA" }, "geometry": { "type": "Point", "coordinates": [ -117.165000915527344, 58.62139892578125 ] } },
{ "type": "Feature", "properties": { "municipality": "Rainbow Lake", "type": "medium_airport", "iata_code": "YOP", "latitude_deg": 58.491401672363281, "longitude_deg": -119.40799713134766, "iso_country": "CA" }, "geometry": { "type": "Point", "coordinates": [ -119.407997131347656, 58.491401672363281 ] } },
{ "type": "Feature", "properties": { "municipality": "Ottawa", "type": "large_airport", "iata_code": "YOW", "latitude_deg": 45.322498, "longitude_deg": -75.669197, "iso_country": "CA" }, "geometry": { "type": "Point", "coordinates": [ -75.669197, 45.322498 ] } },
{ "type": "Feature", "properties": { "municipality": "Prince Albert", "type": "medium_airport", "iata_code": "YPA", "latitude_deg": 53.214199066199996, "longitude_deg": -105.672996521, "iso_country": "CA" }, "geometry": { "type": "Point", "coordinates": [ -105.672996521, 53.214199066199996 ] } },
{ "type": "Feature", "properties": { "municipality": "Paulatuk", "type": "medium_airport", "iata_code": "YPC", "latitude_deg": 69.3608381154, "longitude_deg": -124.075469971, "iso_country": "CA" }, "geometry": { "type": "Point", "coordinates": [ -124.075469971, 69.3608381154 ] } },
{ "type": "Feature", "properties": { "municipality": "Peace River", "type": "medium_airport", "iata_code": "YPE", "latitude_deg": 56.226898, "longitude_deg": -117.446999, "iso_country": "CA" }, "geometry": { "type": "Point", "coordinates": [ -117.446999, 56.226898 ] } },
{ "type": "Feature", "properties": { "municipality": "Inukjuak", "type": "medium_airport", "iata_code": "YPH", "latitude_deg": 58.471900939941406, "longitude_deg": -78.076896667480469, "iso_country": "CA" }, "geometry": { "type": "Point", "coordinates": [ -78.076896667480469, 58.471900939941406 ] } },
{ "type": "Feature", "properties": { "municipality": "Pickle Lake", "type": "medium_airport", "iata_code": "YPL", "latitude_deg": 51.446399688720703, "longitude_deg": -90.214202880859375, "iso_country": "CA" }, "geometry": { "type": "Point", "coordinates": [ -90.214202880859375, 51.446399688720703 ] } },
{ "type": "Feature", "properties": { "municipality": "Pikangikum", "type": "medium_airport", "iata_code": "YPM", "latitude_deg": 51.819698333740234, "longitude_deg": -93.973297119140625, "iso_country": "CA" }, "geometry": { "type": "Point", "coordinates": [ -93.973297119140625, 51.819698333740234 ] } },
{ "type": "Feature", "properties": { "municipality": "Peawanuck", "type": "medium_airport", "iata_code": "YPO", "latitude_deg": 54.98809814453125, "longitude_deg": -85.44329833984375, "iso_country": "CA" }, "geometry": { "type": "Point", "coordinates": [ -85.44329833984375, 54.98809814453125 ] } },
{ "type": "Feature", "properties": { "municipality": "Prince Rupert", "type": "medium_airport", "iata_code": "YPR", "latitude_deg": 54.286098480199996, "longitude_deg": -130.44500732399999, "iso_country": "CA" }, "geometry": { "type": "Point", "coordinates": [ -130.445007323999988, 54.286098480199996 ] } },
{ "type": "Feature", "properties": { "municipality": "Powell River", "type": "medium_airport", "iata_code": "YPW", "latitude_deg": 49.834201812744141, "longitude_deg": -124.5, "iso_country": "CA" }, "geometry": { "type": "Point", "coordinates": [ -124.5, 49.834201812744141 ] } },
{ "type": "Feature", "properties": { "municipality": "Fort Chipewyan", "type": "medium_airport", "iata_code": "YPY", "latitude_deg": 58.767200469970703, "longitude_deg": -111.11699676513672, "iso_country": "CA" }, "geometry": { "type": "Point", "coordinates": [ -111.116996765136719, 58.767200469970703 ] } },
{ "type": "Feature", "properties": { "municipality": "Burns Lake", "type": "medium_airport", "iata_code": "YPZ", "latitude_deg": 54.3764, "longitude_deg": -125.950996, "iso_country": "CA" }, "geometry": { "type": "Point", "coordinates": [ -125.950996, 54.3764 ] } },