municipality,type,iata_code,latitude_deg,longitude_deg,iso_country
Utirik Island,small_airport,UTK,11.222,169.852005,MH
Berwick,heliport,,41.066861,-76.180806,US
Lebanon,heliport,,36.898,-82.078,US
Palmer,small_airport,,61.66830063,-149.1880035,US
Pilot Station,small_airport,PQS,61.934601,-162.899994,US
Gettysburg,heliport,,39.8495,-77.184167,US
Melville,heliport,,40.7975502014,-73.4179000854,US
Nunapitchuk,small_airport,NUP,60.905591,-162.440454,US
Port Protection,seaplane_base,PPV,56.328800201416,-133.61000061035,US
Stonewall,small_airport,,30.2323611,-98.6549722,US
Broussard,heliport,,30.076753,-91.948969,US
Wilmington,heliport,,34.316552,-77.768284,US
Atmautluak,small_airport,ATT,60.866699,-162.272996,US
Ouzinkie,small_airport,KOZ,57.942094,-152.464314,US
Salem,heliport,,44.912,-123.001502752,US
Hyder,seaplane_base,WHD,55.903324,-130.009975,US
Sylvan Beach,small_airport,,43.224244,-75.675528,US
Aleknagik,medium_airport,WKK,59.2826004028,-158.617996216,US
Ketchikan,seaplane_base,WFB,55.349899,-131.677002,US
New York,heliport,TSS,40.74259948730469,-73.97209930419922,US
New York,seaplane_base,QNY,40.735061,-73.972814,US
Tatitlek,small_airport,TEK,60.871449,-146.690297,US
Castle Rock,heliport,,39.344239,-104.841906,US
Chuathbaluk,small_airport,CHU,61.579102,-159.216003,US
Levelock,small_airport,KLL,59.12606,-156.860906,US
Chignik Lake,small_airport,KCQ,56.2550010681,-158.774993896,US
Batha,small_airport,,24.214693,51.44989,SA
Algeciras,heliport,,36.12882,-5.441079,ES
Qara Tepa,heliport,,37.423302,69.430298,AF
Bila,small_airport,AFT,-9.19138888889,160.948611111,SB
Atoifi,small_airport,ATD,-8.87333,161.011002,SB
Auki,small_airport,AKS,-8.70257,160.682007,SB
Anua,small_airport,BNY,-11.302222222200001,159.798333333,SB
,small_airport,CHY,-6.711944,156.396111,SB
Ballalae,small_airport,BAS,-6.990745,155.886656,SB
Fera Island,small_airport,FRE,-8.1075,159.576996,SB
Honiara,large_airport,HIR,-9.428,160.054993,SB
Mbambanakira,small_airport,MBU,-9.7475004196167,159.83900451660156,SB
Kirakira,small_airport,IRA,-10.449700355500001,161.897994995,SB
Santa Cruz/Graciosa Bay/Luova,small_airport,SCZ,-10.72029972076416,165.7949981689453,SB
Munda,medium_airport,MUA,-8.32797,157.263,SB
Gizo,small_airport,GZO,-8.09778022766,156.863998413,SB
Stirling Island,small_airport,MNY,-7.416940212249756,155.56500244140625,SB
Rennell Island,small_airport,RNL,-11.533900260925293,160.06300354003906,SB
Santa Ana Island,small_airport,NNB,-10.847994,162.454108,SB
Marau,small_airport,RUS,-9.861669540409999,160.824996948,SB
Suavanao,small_airport,VAO,-7.585559844970703,158.7310028076172,SB
Yandina,small_airport,XYA,-9.092816,159.21841,SB
Kagau Island,small_airport,KGE,-7.3305,157.585,SB
Gatokae,small_airport,GTA,-8.738358,158.202836,SB
Ramata,small_airport,RBV,-8.168060302734375,157.64300537109375,SB
Bigatyelang Island,small_airport,AIC,7.279422,168.8257,MH
Amook Bay,seaplane_base,AOS,57.4715003967,-153.815002441,US
Puerto Peñasco,small_airport,PPE,31.351987,-113.305177,MX
Yaren District,medium_airport,INU,-0.547458,166.919006,NR
Merlo,small_airport,,-32.35820007324219,-65.01740264892578,AR
San Andrés de Giles,small_airport,,-34.470347,-59.42461,AR
,small_airport,,-42.521363,-68.287861,AR
Aitape,small_airport,ATP,-3.1436111111100002,142.346805556,PG
Cosmo Newbery,small_airport,GYZ,-28.034548,123.81506,AU
Karara,small_airport,KQR,-29.217223,116.687154,AU
Hayman Island,seaplane_base,HIS,-20.059999465942383,148.88099670410156,AU
Bayanhot,medium_airport,AXF,38.74831,105.58858,CN
Buka Island,medium_airport,BUA,-5.4223198890686035,154.67300415039062,PG
Kundiawa,medium_airport,CMU,-6.024290084838867,144.9709930419922,PG
Daru,medium_airport,DAU,-9.08675956726,143.207992554,PG
Goronka,medium_airport,GKA,-6.081689834590001,145.391998291,PG
Gurney,medium_airport,GUR,-10.3114995956,150.333999634,PG
Popondetta,medium_airport,PNP,-8.80453968048,148.309005737,PG
Kimbe,medium_airport,HKN,-5.463846,150.407327,PG
Kieta,small_airport,KIE,-6.305417,155.728139,PG
Losuia,small_airport,LSA,-8.505820274353027,151.08099365234375,PG
Kiunga,small_airport,UNG,-6.1257100105285645,141.28199768066406,PG
Kikori,small_airport,KRI,-7.424379825592041,144.2500762939453,PG
Kerema,medium_airport,KMA,-7.96361017227,145.770996094,PG
Kavieng,medium_airport,KVG,-2.57940006256,150.807998657,PG
Londolovit,small_airport,LNV,-3.04361009598,152.628997803,PG
Madang,medium_airport,MAG,-5.20707988739,145.789001465,PG
Mount Hagen,medium_airport,HGU,-5.828212,144.299412,PG
Mendi,medium_airport,MDU,-6.14774,143.656998,PG
Manus Island,medium_airport,MAS,-2.06189,147.423996,PG
Moro,small_airport,MXH,-6.36332988739,143.238006592,PG
Misima Island,small_airport,MIS,-10.689200401299999,152.837997437,PG
Lae,medium_airport,LAE,-6.569803,146.725977,PG
Port Moresby,large_airport,POM,-9.443380355834961,147.22000122070312,PG
Tari,small_airport,TIZ,-5.84499979019,142.947998047,PG
Tabubil,small_airport,TBG,-5.27861,141.225998,PG
Tapini,small_airport,TPI,-8.35666666667,146.989166667,PG
Kokopo,medium_airport,RAB,-4.34046,152.380005,PG
Vanimo,medium_airport,VAI,-2.6926,141.3028,PG
Wapenamanda,medium_airport,WBM,-5.635293,143.892231,PG
Wewak,medium_airport,WWK,-3.58383011818,143.669006348,PG
Fatima Mission,small_airport,WTP,-8.54583333333,147.2525,PG
Yasuru,small_airport,KSX,-6.6015,146.1813,PG
Benguera Island,medium_airport,BCW,-21.853300094604492,35.43830108642578,MZ
Aasiaat,medium_airport,JEG,68.721802,-52.784698,GL
Aappilattoq,heliport,AOQ,72.88703,-55.596287,GL
Tasiilaq,heliport,AGM,65.612296,-37.618335,GL
Alluitsup Paa,heliport,,60.46445,-45.56917,GL
Aappilattoq,heliport,,60.148357,-44.286916,GL
Ammassivik,heliport,,60.597376,-45.382445,GL
Attu,heliport,QGQ,67.940663,-53.62187,GL
Narsarsuaq,medium_airport,UAK,61.1605,-45.425999,GL
Qasigiannguit,heliport,JCH,68.822816,-51.173447,GL
Neerlerit Inaat,small_airport,CNP,70.743103,-22.650499,GL
Eqalugaarsuit,heliport,QFG,60.61972,-45.914062,GL
Narsarmijit,heliport,,60.004694,-44.656935,GL
Nuuk,medium_airport,GOH,64.193022,-51.676512,GL
Qeqertarsuaq,heliport,JGO,69.251182,-53.514876,GL
Ikerasak,heliport,IKE,70.498145,-51.303084,GL
Iginniarfik,heliport,QFI,68.147226,-53.173528,GP
Ikerassaarsuk,heliport,QRY,68.140881,-53.441459,GL
Ilimanaq,heliport,XIQ,69.080915,-51.114315,GL
Innarsuit,heliport,IUI,73.199895,-56.010817,GL
Isortoq,heliport,IOQ,65.547792,-38.976552,GL
Ikamiut,heliport,QJI,68.634253,-51.832262,GL
Qaqortoq,heliport,JJU,60.715684,-46.029919,GL
Ilulissat,small_airport,JAV,69.243202,-51.057098,GL
Kangaatsiaq,heliport,QPW,68.312657,-53.460208,GL
Kulusuk,medium_airport,KUS,65.573601,-37.1236,GL
Upernavik Kujalleq,heliport,,72.152743,-55.530986,GL
Kuummiut,heliport,KUZ,65.863935,-36.997919,GL
Kullorsuaq,heliport,KHQ,74.57805,-57.226828,GL
Kangersuatsiaq,heliport,KGQ,72.381092,-55.536586,GL
Kitsissuarsuit,heliport,QJE,68.857926,-53.123295,GL
Moriusaq,heliport,,76.753492,-69.845055,GL
Maniitsoq,small_airport,JSU,65.412498,-52.9394,GL
Niaqornaarsuk,heliport,,68.236381,-52.852148,GL
Nuugaatsiaq,heliport,JUU,71.538769,-53.205038,GL
Narsaq,heliport,JNS,60.917283,-46.059923,GL
Niaqornat,heliport,NIQ,70.789385,-53.662945,GL
Nuussuaq,heliport,NSQ,74.109853,-57.065037,GL
Paamiut,small_airport,JFR,62.014736,-49.670937,GL
Qeqertaq,heliport,PQT,69.995861,-51.300917,GL
Qaanaaq,small_airport,NAQ,77.488602,-69.388702,GL
Ittoqqortoormiit,heliport,OBY,70.488229,-21.97168,GL
Kangerlussuaq,medium_airport,SFJ,67.010446,-50.715294,GL
Sermiligaaq,heliport,,65.90592,-36.378254,GL
Siorapaluk,heliport,SRK,77.786517,-70.638657,GL
Saqqaq,heliport,,70.011448,-51.932142,GL
Sisimiut,medium_airport,JHS,66.951302,-53.729301,GL
Saattut,heliport,SAE,70.811172,-51.63129,GL
Savissivik,heliport,SVR,76.018613,-65.117683,GL
Pituffik,medium_airport,THU,76.531197,-68.703201,GL
Tiniteqilaaq,heliport,TQI,65.892027,-37.783409,GL
Tasiusak,heliport,,60.194305,-44.813447,GL
Upernavik,small_airport,JUV,72.790199,-56.1306,GL
Uummannaq,heliport,UMD,70.680428,-52.11163,GL
Uummannaq,small_airport,JQA,70.7342,-52.696201,GL
Ukkusissat,heliport,JUK,71.049438,-51.890016,GL
Akureyri,medium_airport,AEY,65.66000366210938,-18.07270050048828,IS
Egilsstaðir,medium_airport,EGS,65.2833023071289,-14.401399612426758,IS
Grímsey,small_airport,GRY,66.5458,-18.0173,IS
Höfn,medium_airport,HFN,64.295601,-15.2272,IS
Húsavík,medium_airport,HZK,65.952301,-17.426001,IS
Ísafjörður,medium_airport,IFJ,66.05809783935547,-23.135299682617188,IS
Reykjavík,large_airport,KEF,63.985001,-22.6056,IS
Reykjavik,medium_airport,RKV,64.1299972534,-21.9405994415,IS
Þórshöfn,small_airport,THO,66.218498,-15.3356,IS
Vopnafjörður,small_airport,VPN,65.72059631347656,-14.850600242614746,IS
Bentota,seaplane_base,BJT,6.431,79.996,LK
Prishtina,medium_airport,PRN,42.5728,21.035801,XK
Bamburi,small_airport,BMQ,-3.983363,39.730982,KE
Bosset,small_airport,BOT,-7.237257,141.1063222,PG
Medianeira,heliport,,-25.27427,-54.067369,BR
Campos do Jordão,heliport,,-22.7384254,-45.540062,BR
Aéreas do CBMSC,heliport,,-27.614324,-48.528333,BR
Vitória da Conquista,medium_airport,VDC,-14.907885,-40.914804,BR
Ubaíra,small_airport,,-13.240032,-39.759292,BR
Bimini,seaplane_base,NSB,25.767000198364258,-79.25,BS
Belmopan,small_airport,BCV,17.269603,-88.776496,BZ
Big Creek,medium_airport,BGK,16.519369,-88.407913,BZ
Caye Caulker,medium_airport,CUK,17.735015,-88.032862,BZ
Caye Chapel,medium_airport,CYC,17.683792,-88.044985,BZ
Corozal,medium_airport,CZH,18.382200241088867,-88.41190338134766,BZ
Dangriga,medium_airport,DGA,16.98251,-88.230988,BZ
Placencia,medium_airport,PLJ,16.536956787109375,-88.36151123046875,BZ
Punta Gorda,medium_airport,PND,16.102399826,-88.80829620360001,BZ
Sartaneja,medium_airport,SJX,18.35610008239746,-88.13079833984375,BZ
San Pedro,medium_airport,SPR,17.9139,-87.9711,BZ
Belize City,medium_airport,TZA,17.517239,-88.195775,BZ
Bamfield,medium_airport,,48.8206,-125.1193,CA
Bedwell Harbour,seaplane_base,YBW,48.75,-123.233001709,CA
Nanaimo,seaplane_base,ZNA,49.169813,-123.933845,CA
Trail,small_airport,YZZ,49.055599,-117.609001,CA
Whistler,seaplane_base,YWS,50.1436004639,-122.948997498,CA
Anahim Lake,medium_airport,YAA,52.451501,-125.303776,CA
Vancouver,seaplane_base,,49.177047,-123.168154,CA
Salt Spring Island,seaplane_base,YGG,48.8545,-123.4969,CA
Cache Creek,medium_airport,YZA,50.775258,-121.321314,CA
Bella Bella,medium_airport,ZEL,52.185001,-128.156994,CA
Port Alberni,small_airport,YPB,49.321899,-124.931,CA
Williams Harbour,small_airport,YWM,52.567377,-55.784883,CA
Postville,small_airport,YSO,54.9105,-59.78507,CA
St. Lewis,small_airport,YFX,52.372798919677734,-55.67390060424805,CA
Port Hope Simpson,small_airport,YHA,52.528099060058594,-56.28609848022461,CA
Campbell River,heliport,,50.0413226692,-125.268448144,CA
Comox,seaplane_base,,49.670601,-124.932999,CA
Rigolet,small_airport,YRG,54.1796989440918,-58.45750045776367,CA
Whatì,small_airport,YLE,63.13169860839844,-117.24600219726562,CA
Wekweètì,small_airport,YFJ,64.190804,-114.077002,CA
Summer Beaver,small_airport,SUR,52.70859909057617,-88.54190063476562,CA
Angling Lake,small_airport,YAX,53.84920120239258,-89.57939910888672,CA
Wunnumin Lake,small_airport,WNN,52.89390182495117,-89.28919982910156,CA
North Spirit Lake,small_airport,YNO,52.4900016784668,-92.97109985351562,CA
Sonoma,heliport,,38.158228,-122.456344,US
Tangshan,small_airport,TVS,39.7178001404,118.002624512,CN
Zhangjiakou,medium_airport,ZQZ,40.738602,114.93,CN
Baoshan (Longyang),medium_airport,BSD,25.053301,99.168297,CN
Lincang,medium_airport,LNJ,23.7381,100.025002,CN
Xigazê (Samzhubzê),medium_airport,RKZ,29.3519,89.311401,CN
Panzhihua (Renhe),medium_airport,PZI,26.54,101.79852,CN
Foshan (Nanhai),medium_airport,FUO,23.0833,113.07,CN
Bazhong (Enyang),small_airport,BZX,31.73842,106.644872,CN
Xinyang,medium_airport,XAI,32.540819,114.079141,CN
Huizhou (Pingtan),medium_airport,HUZ,23.049999,114.599998,CN
Shaoguan,medium_airport,HSC,24.9786,113.420998,CN
Ji'an,medium_airport,JGS,26.856899,114.737,CN
Baise (Tianyang),medium_airport,AEB,23.7206,106.959999,CN
Lianyungang,medium_airport,LYG,34.41406,119.17899,CN
Altay,medium_airport,AAT,47.749886,88.085808,CN
Fuzhou (Minhou),heliport,,26.123906,119.113959,CN
Tianshui (Maiji),medium_airport,THQ,34.559399,105.860001,CN
Zhangye (Ganzhou),small_airport,YZY,38.801899,100.675003,CN
"Zhenxing, Dandong",medium_airport,DDG,40.0247,124.286003,CN
Zhanjiang,medium_airport,ZHA,21.481667,110.590278,CN
Zhaosu,small_airport,ZFL,43.1075,81.160556,CN
Nantong,medium_airport,NTG,32.070801,120.975998,CN
Bearskin Lake,small_airport,XBE,53.965599060058594,-91.0271987915039,CA
Natuashish,small_airport,YNP,55.913898,-61.184399,CA
Kingfisher Lake,small_airport,KIF,53.01250076293945,-89.85530090332031,CA
Ogoki Post,small_airport,YOG,51.6585998535,-85.9017028809,CA
La Chorrera,small_airport,LCR,-0.733333,-73.01667,CO
Tarapacá,small_airport,TCD,-2.894722,-69.747222,CO
Poplar Hill,small_airport,YHP,52.1133,-94.2556,CA
Streatham,small_airport,,53.822569,-126.172957,CA
Chisasibi,small_airport,YKU,53.805599212646484,-78.91690063476562,CA
Tête-à-la-Baleine,small_airport,ZTB,50.674400329589844,-59.38359832763672,CA
La Tabatière,small_airport,ZLT,50.8307991027832,-58.97560119628906,CA
Geçitkale,medium_airport,GEC,35.235947,33.724358,CY
Arctic Bay,small_airport,YAB,73.006101,-85.04616,CA
Cat Lake,medium_airport,YAC,51.72719955444336,-91.82440185546875,CA
Fort Frances,medium_airport,YAG,48.655749,-93.44349,CA
Alert Bay,medium_airport,YAL,50.582199,-126.916,CA
Sault Ste Marie,medium_airport,YAM,46.485001,-84.509399,CA
Kasabonika,medium_airport,XKS,53.52470016479492,-88.6427993774414,CA
Kangirsuk,medium_airport,YKG,60.027198791503906,-69.99919891357422,CA
Attawapiskat,medium_airport,YAT,52.9275016784668,-82.43190002441406,CA
Lac Du Bonnet,medium_airport,,50.294399,-96.010002,CA
St. Anthony,medium_airport,YAY,51.391909,-56.08321,CA
Tofino,medium_airport,YAZ,49.079833,-125.775583,CA
Kugaaruk,medium_airport,YBB,68.534401,-89.808098,CA
Baie-Comeau,medium_airport,YBC,49.1325,-68.204399,CA
Bella Coola,medium_airport,QBC,52.387501,-126.596001,CA
Uranium City,medium_airport,YBE,59.5614013671875,-108.48100280761719,CA
Bonnyville,medium_airport,YBY,54.304199,-110.744003,CA
Bagotville,medium_airport,YBG,48.33060073852539,-70.99639892578125,CA
Baker Lake,medium_airport,YBK,64.29889678960001,-96.077796936,CA
Campbell River,medium_airport,YBL,49.950802,-125.271004,CA
Tadoule Lake,medium_airport,XTL,58.7061,-98.512199,CA
Brandon,medium_airport,YBR,49.91,-99.951897,CA
Brochet,medium_airport,YBT,57.8894,-101.679001,CA
Berens River,medium_airport,YBV,52.358898,-97.018303,CA
Blanc-Sablon,medium_airport,YBX,51.4436,-57.185299,CA
Cartwright,medium_airport,YRF,53.682501,-57.042303,CA
Cambridge Bay,medium_airport,YCB,69.1081008911,-105.138000488,CA
Nanaimo,medium_airport,YCD,49.05497,-123.869863,CA
Castlegar,medium_airport,YCG,49.2963981628,-117.632003784,CA
Miramichi,medium_airport,YCH,47.007801,-65.449203,CA
Charlo,medium_airport,YCL,47.990799,-66.330299,CA
Kugluktuk,medium_airport,YCO,67.816704,-115.143997,CA
Chesterfield Inlet,medium_airport,YCS,63.346900939899996,-90.73110198970001,CA
Clyde River,medium_airport,YCY,70.4860992432,-68.5167007446,CA
Dawson City,medium_airport,YDA,64.04309844970703,-139.1280059814453,CA
Deer Lake,medium_airport,YDF,49.21080017089844,-57.39139938354492,CA
Dauphin,medium_airport,YDN,51.100799560546875,-100.052001953125,CA
Nain,medium_airport,YDP,56.550778,-61.682224,CA
Dawson Creek,medium_airport,YDQ,55.7422981262207,-120.18299865722656,CA
Edmonton,large_airport,YEG,53.309700012200004,-113.580001831,CA
Arviat,medium_airport,YEK,61.0942001343,-94.07080078119999,CA
Fort Severn,medium_airport,YER,56.01890182495117,-87.67610168457031,CA
Inuvik,medium_airport,YEV,68.30419921880001,-133.483001709,CA
Fort Albany,medium_airport,YFA,52.20140075683594,-81.6968994140625,CA
Iqaluit,medium_airport,YFB,63.756402,-68.555801,CA
Fredericton,medium_airport,YFC,45.868900299072266,-66.53720092773438,CA
Fort Hope,medium_airport,YFH,51.5619010925293,-87.90779876708984,CA
La Macaza,medium_airport,YTM,46.409401,-74.779999,CA
Flin Flon,medium_airport,YFO,54.6781005859375,-101.68199920654297,CA
Fort Simpson,medium_airport,YFS,61.76020050048828,-121.23699951171875,CA
Makkovik,medium_airport,YMN,55.077335,-59.187942,CA
Texada,medium_airport,YGB,49.69419860839844,-124.51799774169922,CA
Fort Good Hope,medium_airport,YGH,66.24079895019531,-128.6510009765625,CA
Kingston,medium_airport,YGK,44.22529983520508,-76.5969009399414,CA
La Grande Rivière,medium_airport,YGL,53.625301361083984,-77.7042007446289,CA
Gods Lake Narrows,medium_airport,YGO,54.55889892578125,-94.49140167236328,CA
Gaspé,medium_airport,YGP,48.7752990723,-64.4785995483,CA
Les Îles-de-la-Madeleine,medium_airport,YGR,47.425242,-61.778612,CA
Igloolik,medium_airport,YGT,69.3647003174,-81.8161010742,CA
Kuujjuarapik,medium_airport,YGW,55.281898498535156,-77.76529693603516,CA
Gillam,medium_airport,YGX,56.35749816894531,-94.71060180664062,CA
Grise Fiord,medium_airport,YGZ,76.4261016846,-82.90920257570001,CA
Quaqtaq,medium_airport,YQC,61.0463981628418,-69.6177978515625,CA
Vancouver,seaplane_base,CXH,49.291265,-123.11717,CA
Dryden,medium_airport,YHD,49.831699,-92.744202,CA
Nemiscau,medium_airport,YNS,51.69110107421875,-76.1355972290039,CA
Ulukhaktok,medium_airport,YHI,70.76280212402344,-117.80599975585938,CA
Gjoa Haven,medium_airport,YHK,68.635597229,-95.84970092770001,CA
Hamilton,medium_airport,YHM,43.173599243199995,-79.93499755859999,CA
Hopedale,medium_airport,YHO,55.448757,-60.228124,CA
Chevery,medium_airport,YHR,50.46889877319336,-59.63669967651367,CA
Montréal,medium_airport,YHU,45.5175018311,-73.4169006348,CA
Hay River,medium_airport,YHY,60.8396987915,-115.782997131,CA
Halifax,large_airport,YHZ,44.8807983398,-63.5085983276,CA
Ivujivik,medium_airport,YIK,62.417301177978516,-77.92530059814453,CA
Pond Inlet,medium_airport,YIO,72.6832962036,-77.9666976929,CA
Island Lake,medium_airport,YIV,53.857200622558594,-94.65360260009766,CA
Stephenville,medium_airport,YJT,48.5442008972168,-58.54999923706055,CA
Kamloops,medium_airport,YKA,50.7022018433,-120.444000244,CA
Aklavik,medium_airport,LAK,68.223297,-135.00599,CA
Kitchener,medium_airport,YKF,43.460800170899994,-80.3786010742,CA
Kangiqsujuaq,medium_airport,YWB,61.5886001587,-71.929397583,CA
Schefferville,medium_airport,YKL,54.805301666259766,-66.8052978515625,CA
Akulivik,medium_airport,AKV,60.818599700927734,-78.14859771728516,CA
Waskaganish,medium_airport,YKQ,51.47330093383789,-78.75830078125,CA
Aupaluk,medium_airport,YPJ,59.29669952392578,-69.59970092773438,CA
Kimmirut,medium_airport,YLC,62.848253,-69.877853,CA
Lansdowne House,medium_airport,YLH,52.19559860229492,-87.93419647216797,CA
Lutselk'e,medium_airport,YSG,62.418303,-110.681998,CA
Lloydminster,medium_airport,YLL,53.309200286865234,-110.072998046875,CA
Kangiqsualujjuaq,medium_airport,XGR,58.711399,-65.992798,CA
Kelowna,medium_airport,YLW,49.9561,-119.377998,CA
Mary's Harbour,medium_airport,YMH,52.302837,-55.847626,CA
Fort McMurray,medium_airport,YMM,56.653301239,-111.222000122,CA
Moosonee,medium_airport,YMO,51.291099548339844,-80.60780334472656,CA
Chibougamau,medium_airport,YMT,49.77190017700195,-74.5280990600586,CA
Umiujaq,medium_airport,YUD,56.53609848022461,-76.51830291748047,CA
Natashquan,medium_airport,YNA,50.189998626708984,-61.78919982910156,CA
Wemindji,medium_airport,YNC,53.01060104370117,-78.83110046386719,CA
Gatineau,medium_airport,YND,45.521702,-75.563599,CA
Norway House,medium_airport,YNE,53.95830154418945,-97.84420013427734,CA
Points North Landing,medium_airport,YNL,58.27669906616211,-104.08200073242188,CA
Old Crow,medium_airport,YOC,67.57060241699219,-139.83900451660156,CA
Oxford House,medium_airport,YOH,54.93330001831055,-95.27890014648438,CA
High Level,medium_airport,YOJ,58.62139892578125,-117.16500091552734,CA
Rainbow Lake,medium_airport,YOP,58.49140167236328,-119.40799713134766,CA
Ottawa,large_airport,YOW,45.322498,-75.669197,CA
Prince Albert,medium_airport,YPA,53.214199066199996,-105.672996521,CA
Paulatuk,medium_airport,YPC,69.3608381154,-124.075469971,CA
Peace River,medium_airport,YPE,56.226898,-117.446999,CA
Inukjuak,medium_airport,YPH,58.471900939941406,-78.07689666748047,CA
Pickle Lake,medium_airport,YPL,51.4463996887207,-90.21420288085938,CA
Pikangikum,medium_airport,YPM,51.819698333740234,-93.97329711914062,CA
Peawanuck,medium_airport,YPO,54.98809814453125,-85.44329833984375,CA
Prince Rupert,medium_airport,YPR,54.286098480199996,-130.445007324,CA
Powell River,medium_airport,YPW,49.83420181274414,-124.5,CA
Fort Chipewyan,medium_airport,YPY,58.7672004699707,-111.11699676513672,CA
Burns Lake,medium_airport,YPZ,54.3764,-125.950996,CA
Quebec,large_airport,YQB,46.7911,-71.393303,CA
The Pas,medium_airport,YQD,53.97140121459961,-101.09100341796875,CA
Windsor,medium_airport,YQG,42.27560043334961,-82.95559692382812,CA
Kenora,medium_airport,YQK,49.788299560546875,-94.36309814453125,CA
Lethbridge,medium_airport,YQL,49.6302986145,-112.800003052,CA
Moncton,medium_airport,YQM,46.112202,-64.678596,CA
Nakina,medium_airport,YQN,50.18280029296875,-86.69640350341797,CA
Comox,medium_airport,YQQ,49.7108,-124.887001,CA
Regina,medium_airport,YQR,50.43190002441406,-104.66600036621094,CA
Thunder Bay,medium_airport,YQT,48.37189865112305,-89.32389831542969,CA
Grande Prairie,medium_airport,YQU,55.1796989441,-118.885002136,CA
Gander,medium_airport,YQX,48.936258,-54.567719,CA
Sydney,medium_airport,YQY,46.1614,-60.047798,CA
Quesnel,medium_airport,YQZ,53.026100158691406,-122.51000213623047,CA
Gamètì,medium_airport,YRA,64.11609649658203,-117.30999755859375,CA
Resolute Bay,medium_airport,YRB,74.7169036865,-94.9693984985,CA
Roberval,medium_airport,YRJ,48.52000045776367,-72.2656021118164,CA
Red Lake,medium_airport,YRL,51.066898345947266,-93.79309844970703,CA
Rankin Inlet,medium_airport,YRT,62.8114013672,-92.1157989502,CA
Sudbury,medium_airport,YSB,46.625,-80.79889678955078,CA
Stony Rapids,medium_airport,YSF,59.250301361083984,-105.84100341796875,CA
Saint John,medium_airport,YSJ,45.31610107421875,-65.89029693603516,CA
Sanikiluaq,medium_airport,YSK,56.5377998352,-79.2466964722,CA
Fort Smith,medium_airport,YSM,60.020302,-111.961998,CA
Atlin,medium_airport,,59.576698,-133.669006,CA
St. Theresa Point,medium_airport,YST,53.84560012817383,-94.85189819335938,CA
Sachs Harbour,medium_airport,YSY,71.9938964844,-125.242996216,CA
Kinngait,medium_airport,YTE,64.230003,-76.526703,CA
Alma,medium_airport,YTF,48.50889968869999,-71.64189910889999,CA
Thompson,medium_airport,YTH,55.80110168457031,-97.86419677734375,CA
Big Trout Lake,medium_airport,YTL,53.81779861450195,-89.89689636230469,CA
Timmins,medium_airport,YTS,48.569698333699996,-81.376701355,CA
Toronto,medium_airport,YTZ,43.627499,-79.396202,CA
Tuktoyaktuk,medium_airport,YUB,69.433296,-133.026001,CA
Montréal,large_airport,YUL,45.4706001282,-73.7407989502,CA
Repulse Bay,medium_airport,YUT,66.5214,-86.224701,CA
Sanirajak,medium_airport,YUX,68.7761,-81.2425,CA
Rouyn-Noranda,medium_airport,YUY,48.20610046386719,-78.83560180664062,CA
La Ronge,medium_airport,YVC,55.151401519800004,-105.262001038,CA
Colville Lake,small_airport,YCK,67.02,-126.126,CA
Qikiqtarjuaq,medium_airport,YVM,67.546232,-64.031754,CA
Val-d'Or,medium_airport,YVO,48.0532989502,-77.7827987671,CA
Kuujjuaq,medium_airport,YVP,58.096099853515625,-68.4269027709961,CA
Norman Wells,medium_airport,YVQ,65.28160095214844,-126.7979965209961,CA
Vancouver,large_airport,YVR,49.193901062,-123.183998108,CA
Deer Lake,medium_airport,YVZ,52.655799865722656,-94.0614013671875,CA
Winnipeg,large_airport,YWG,49.909999847399995,-97.2398986816,CA
Victoria,seaplane_base,YWH,48.423782,-123.37198,CA
Déline,medium_airport,YWJ,65.21109771728516,-123.43599700927734,CA
Wabush,medium_airport,YWK,52.92190170288086,-66.8644027709961,CA
Williams Lake,medium_airport,YWL,52.1831016541,-122.054000854,CA
Webequie,medium_airport,YWP,52.9593933975,-87.3748683929,CA
Cranbrook,medium_airport,YXC,49.610801696777,-115.78199768066,CA
Saskatoon,medium_airport,YXE,52.170799255371094,-106.69999694824219,CA
Medicine Hat,medium_airport,YXH,50.018902,-110.721001,CA
Fort St.John,medium_airport,YXJ,56.238098,-120.739998,CA
Sioux Lookout,medium_airport,YXL,50.11389923095703,-91.9052963256836,CA
Whale Cove,medium_airport,YXN,62.24000167849999,-92.59809875490001,CA
Pangnirtung,medium_airport,YXP,66.1449966431,-65.71360015869999,CA
Prince George,medium_airport,YXS,53.8894004822,-122.679000854,CA
Terrace,medium_airport,YXT,54.468498,-128.576009,CA
London,medium_airport,YXU,43.035599,-81.1539,CA
Abbotsford,large_airport,YXX,49.025299,-122.361,CA
Whitehorse,medium_airport,YXY,60.709599,-135.067001,CA
North Bay,medium_airport,YYB,46.363602,-79.422798,CA
Calgary,large_airport,YYC,51.113899231,-114.019996643,CA
Smithers,medium_airport,YYD,54.82469940185547,-127.18299865722656,CA
Fort Nelson,medium_airport,YYE,58.8363990784,-122.597000122,CA
Penticton,medium_airport,YYF,49.46310043334961,-119.60199737548828,CA
Charlottetown,medium_airport,YYG,46.290000915527344,-63.12110137939453,CA
Taloyoak,medium_airport,YYH,69.5467,-93.576698,CA
Victoria,large_airport,YYJ,48.6469,-123.426003,CA
Lynn Lake,medium_airport,YYL,56.86389923095703,-101.07599639892578,CA
Churchill,medium_airport,YYQ,58.739200592041016,-94.06500244140625,CA
Goose Bay,medium_airport,YYR,53.3191986084,-60.4258003235,CA
St. John's,large_airport,YYT,47.618598938,-52.7518997192,CA
Kapuskasing,medium_airport,YYU,49.41389846801758,-82.46749877929688,CA
Mont-Joli,medium_airport,YYY,48.60860061645508,-68.20809936523438,CA
Toronto,large_airport,YYZ,43.6772003174,-79.63059997559999,CA
Yellowknife,medium_airport,YZF,62.462799,-114.440002,CA
Salluit,medium_airport,YZG,62.17940139770508,-75.66719818115234,CA
Sandspit,medium_airport,YZP,53.25429916379999,-131.813995361,CA
Sarnia,medium_airport,YZR,42.9994010925293,-82.30889892578125,CA
Coral Harbour,medium_airport,YZS,64.1932983398,-83.3593978882,CA
Port Hardy,medium_airport,YZT,50.680599212646484,-127.36699676513672,CA
Sept-Îles,medium_airport,YZV,50.22330093383789,-66.2656021118164,CA
York Landing,medium_airport,ZAC,56.08940124511719,-96.08920288085938,CA
Ilford,medium_airport,ILF,56.05163,-95.620523,CA
South Tetagouche,medium_airport,ZBF,47.6297,-65.738899,CA
Eastmain River,medium_airport,ZEM,52.22639846801758,-78.52249908447266,CA
Fond-Du-Lac,medium_airport,ZFD,59.33440017700195,-107.18199920654297,CA
Fort Mcpherson,medium_airport,ZFM,67.40750122070312,-134.86099243164062,CA
Tulita,medium_airport,ZFN,64.909697,-125.572998,CA
Gods River,medium_airport,ZGI,54.839698791503906,-94.07859802246094,CA
Corazón de Jesús and Narganá Islands,small_airport,CZJ,9.44686,-78.575678,PA
Kashechewan,medium_airport,ZKE,52.282501220703125,-81.67780303955078,CA
Muskrat Dam,medium_airport,MSA,53.44139862060547,-91.76280212402344,CA
Masset,medium_airport,ZMT,54.02750015258789,-132.125,CA
Chisana,small_airport,CZN,62.0712013245,-142.04800415,US
Sachigo Lake,medium_airport,ZPB,53.8911018371582,-92.19640350341797,CA
Round Lake,medium_airport,ZRJ,52.943599700927734,-91.31279754638672,CA
Sandy Lake,medium_airport,ZSJ,53.06420135498047,-93.34439849853516,CA
Shamattawa,medium_airport,ZTM,55.8656005859375,-92.0813980102539,CA
Churchill Falls,small_airport,ZUM,53.5619010925293,-64.10639953613281,CA
Wollaston Lake,medium_airport,ZWL,58.10689926147461,-103.1719970703125,CA
Béjaïa,medium_airport,BJA,36.711952,5.069804,DZ
Algiers,large_airport,ALG,36.693886,3.214531,DZ
Djanet,medium_airport,DJG,24.292801,9.45244,DZ
Illizi,medium_airport,VVZ,26.723499,8.62265,DZ
Sétif,medium_airport,QSF,36.178100585900005,5.3244900703399995,DZ
Tamanrasset,medium_airport,TMR,22.8115005493,5.45107984543,DZ
Tahir,medium_airport,GJL,36.795101,5.87361,DZ
Annaba,medium_airport,AAE,36.826781,7.81334,DZ
Constantine,medium_airport,CZL,36.2760009765625,6.620389938354492,DZ
Tébessi,medium_airport,TEE,35.4315986633,8.12071990967,DZ
Batna,medium_airport,BLJ,35.752102,6.30859,DZ
Hassi R'Mel,medium_airport,HRM,32.930401,3.31154,DZ
Tindouf,medium_airport,TIN,27.7003993988,-8.167099952700001,DZ
Zenata,medium_airport,TLM,35.013426,-1.457191,DZ
Es-Sénia,medium_airport,ORN,35.623901,-0.621183,DZ
Béchar,medium_airport,CBH,31.645700454711914,-2.269860029220581,DZ
Bordj Badji Mokhtar,small_airport,BMW,21.3778,0.92698,DZ
Adrar,medium_airport,AZR,27.837601,-0.186414,DZ
Biskra,medium_airport,BSK,34.793301,5.73823,DZ
El Menia,medium_airport,ELG,30.580732,2.861595,DZ
El Atteuf,medium_airport,GHA,32.384102,3.79411,DZ
Hassi Messaoud,medium_airport,HME,31.673,6.14044,DZ
In Salah,medium_airport,INZ,27.250999,2.51202,DZ
Touggourt,medium_airport,TGR,33.067799,6.08867,DZ
Guemar,medium_airport,ELU,33.5113983154,6.77679014206,DZ
Timimoun,medium_airport,TMX,29.237101,0.276033,DZ
Ouargla,medium_airport,OGX,31.9172,5.41278,DZ
In Aménas,medium_airport,IAM,28.0515,9.64291,DZ
Cotonou,medium_airport,COO,6.357230186462402,2.384350061416626,BJ
Baicheng,medium_airport,DBC,45.505278,123.019722,CN
Dekai,small_airport,DEX,-4.8557,139.482006,ID
Ouagadougou,medium_airport,OUA,12.3532,-1.51242,BF
Bobo Dioulasso,medium_airport,BOY,11.160099983215332,-4.33096981048584,BF
Accra,large_airport,ACC,5.605189800262451,-0.16678600013256073,GH
Ho,medium_airport,,6.579691,0.532547,GH
Tamale,medium_airport,TML,9.55718994140625,-0.8632140159606934,GH
Kumasi,medium_airport,KMS,6.714560031890869,-1.5908199548721313,GH
Sunyani,medium_airport,NYI,7.36183,-2.32876,GH
Sekondi-Takoradi,medium_airport,TKD,4.896059989929199,-1.7747600078582764,GH
Abidjan,medium_airport,ABJ,5.26139,-3.92629,CI
Bouaké,medium_airport,BYK,7.7388,-5.07367,CI
Dalnerechensk,small_airport,DLR,45.877949,133.735822,RU
Abuja,large_airport,ABV,9.006790161132812,7.263169765472412,NG
Uyo,medium_airport,QUO,4.8725,8.093,NG
Akure,medium_airport,AKR,7.246739864349365,5.3010101318359375,NG
Bauchi,medium_airport,BCU,10.482833,9.744,NG
Benin,medium_airport,BNI,6.316979885101318,5.5995001792907715,NG
Yenagoa,medium_airport,,4.95759,6.203327,NG
Calabar,medium_airport,CBQ,4.976019859313965,8.347200393676758,NG
Enegu,medium_airport,ENU,6.474269866943359,7.561960220336914,NG
Ibadan,medium_airport,IBA,7.362460136413574,3.97832989692688,NG
Ilorin,medium_airport,ILR,8.440210342407227,4.493919849395752,NG
Owerri,medium_airport,QOW,5.427060127258301,7.206029891967773,NG
Jos,medium_airport,JOS,9.639829635620117,8.869050025939941,NG
Kaduna,medium_airport,KAD,10.696000099182129,7.320109844207764,NG
Kano,medium_airport,KAN,12.0476,8.52462,NG
Maiduguri,medium_airport,MIU,11.855299949645996,13.080900192260742,NG
Makurdi,medium_airport,MDI,7.70388,8.61394,NG
Lagos,large_airport,LOS,6.5773701667785645,3.321160078048706,NG
Port Harcourt,medium_airport,PHC,5.0154900550842285,6.94959020614624,NG
Sokoto,medium_airport,SKO,12.916299819946289,5.207190036773682,NG
Yola,medium_airport,YOL,9.257550239562988,12.430399894714355,NG
Deputatskiy,small_airport,DPT,69.392503,139.890012,RU
Daqing,small_airport,DQA,46.750883,125.138642,CN
Niamey,large_airport,NIM,13.4815,2.18361,NE
Agadez,medium_airport,AJY,16.965999603271484,8.000109672546387,NE
Zinder,medium_airport,ZND,13.779000282287598,8.983759880065918,NE
Tabarka,medium_airport,TBJ,36.98,8.87694,TN
Monastir,medium_airport,MIR,35.75809860229492,10.75469970703125,TN
Enfidha,medium_airport,NBE,36.075833,10.438611,TN
Tunis,large_airport,TUN,36.851002,10.2272,TN
Gafsa,medium_airport,GAF,34.422000885009766,8.822500228881836,TN
Gabès,medium_airport,GAE,33.733691,9.91941,TN
Mellita,medium_airport,DJE,33.875,10.7755,TN
Sfax,medium_airport,SFA,34.71799850463867,10.690999984741211,TN
Tozeur,medium_airport,TOE,33.939701080322266,8.110560417175293,TN
Sri Jayawardenepura Kotte,seaplane_base,DWO,6.906585,79.909,LK
Lomé,medium_airport,LFW,6.16561,1.25451,TG
Antwerp,medium_airport,ANR,51.1894,4.46028,BE
Zaventem,large_airport,BRU,50.901402,4.48444,BE
Brussels,medium_airport,CRL,50.459202,4.45382,BE
Liège,medium_airport,LGG,50.637402,5.44322,BE
Ostend,medium_airport,OST,51.1998,2.874673,BE
Heringsdorf,medium_airport,HDF,53.8787002563,14.152299881,DE
Berlin,large_airport,BER,52.362247,13.500672,DE
Dresden,medium_airport,DRS,51.134123,13.767831,DE
Erfurt,medium_airport,ERF,50.979801177978516,10.958100318908691,DE
Frankfurt am Main,large_airport,FRA,50.036521,8.561268,DE
Münster,medium_airport,FMO,52.134602,7.68483,DE
Hamburg,large_airport,HAM,53.630402,9.98823,DE
Köln (Cologne),large_airport,CGN,50.865898,7.14274,DE
Düsseldorf,large_airport,DUS,51.289501,6.76678,DE
Munich,large_airport,MUC,48.353802,11.7861,DE
Nuremberg,large_airport,NUE,49.498699,11.078056,DE
Leipzig,large_airport,LEJ,51.423889,12.236389,DE
Saarbrücken,medium_airport,SCN,49.214599609400004,7.10950994492,DE
Stuttgart,large_airport,STR,48.689899444599995,9.22196006775,DE
Hannover,large_airport,HAJ,52.461102,9.68508,DE
Bremen,medium_airport,BRE,53.047501,8.78667,DE
Frankfurt am Main,medium_airport,HHN,49.9487,7.26389,DE
Mannheim,medium_airport,MHG,49.473057,8.514167,DE
Lübeck,medium_airport,LBC,53.8054008484,10.7192001343,DE
Memmingen,medium_airport,FMM,47.988800048799995,10.2395000458,DE
Paderborn,medium_airport,PAD,51.614101409899995,8.616319656369999,DE
Weeze,medium_airport,NRN,51.6024017334,6.14216995239,DE
Dortmund,medium_airport,DTM,51.518299,7.61224,DE
Friedrichshafen,medium_airport,FDH,47.671299,9.51149,DE
Baden-Baden,medium_airport,FKB,48.7794,8.0805,DE
Kassel,medium_airport,KSF,51.417273,9.384967,DE
Emden,small_airport,EME,53.391109,7.2275,DE
Borkum,small_airport,BMK,53.59639,6.709167,DE
Norderney,small_airport,NRD,53.706944,7.23,DE
Büsum,small_airport,HEI,54.153331756600004,8.90166664124,DE
Helgoland,small_airport,HGL,54.185279846200004,7.91583299637,DE
Westerland,medium_airport,GWT,54.9132,8.34047,DE
Tallinn,heliport,,59.448015,24.753313,EE
Kärdla,medium_airport,KDL,58.99079895019531,22.830699920654297,EE
Kuressaare,medium_airport,URE,58.22990036010742,22.50950050354004,EE
Pärnu,medium_airport,EPU,58.41899871826172,24.47279930114746,EE
Ringsu,small_airport,,57.78390121459961,23.26609992980957,EE
Tallinn,large_airport,TLL,59.41329956049999,24.832799911499997,EE
Tartu,medium_airport,TAY,58.307499,26.690399,EE
Enontekio,medium_airport,ENF,68.362602233887,23.424299240112,FI
Helsinki,large_airport,HEL,60.3172,24.963301,FI
Ivalo,medium_airport,IVL,68.607299804688,27.405300140381,FI
Joensuu / Liperi,medium_airport,JOE,62.662899,29.6075,FI
Jyväskylän Maalaiskunta,medium_airport,JYV,62.399502,25.678301,FI
Kemi / Tornio,medium_airport,KEM,65.778701782227,24.582099914551,FI
Kajaani,medium_airport,KAJ,64.2855,27.6924,FI
Kokkola / Kruunupyy,medium_airport,KOK,63.721199,23.143101,FI
Kuusamo,medium_airport,KAO,65.987602,29.239401,FI
Kittilä,medium_airport,KTT,67.700996398926,24.846799850464,FI
Kuopio / Siilinjärvi,medium_airport,KUO,63.007099,27.7978,FI
Lappeenranta,medium_airport,LPP,61.044601,28.144743,FI
Mariehamn,medium_airport,MHQ,60.1222,19.898199,FI
Oulu / Oulunsalo,medium_airport,OUL,64.930099,25.354601,FI
Pori,medium_airport,POR,61.4617,21.799999,FI
Rovaniemi,medium_airport,RVN,66.564796447754,25.830400466919,FI
Savonlinna,medium_airport,SVL,61.9431,28.945101,FI
Seinäjoki / Ilmajoki,medium_airport,SJY,62.692101,22.8323,FI
Tampere / Pirkkala,medium_airport,TMP,61.414101,23.604401,FI
Turku,medium_airport,TKU,60.514099,22.2628,FI
Vaasa,medium_airport,VAA,63.050701,21.762199,FI
Varkaus / Joroinen,medium_airport,VRK,62.171101,27.868601,FI
Belfast,large_airport,BFS,54.6575012207,-6.2158298492399995,GB
Belfast,medium_airport,BHD,54.618099,-5.8725,GB
Derry,medium_airport,LDY,55.04280090332031,-7.161109924316406,GB
Birmingham,large_airport,BHX,52.453899383499994,-1.74802994728,GB
Manchester,large_airport,MAN,53.349375,-2.279521,GB
Doncaster,medium_airport,DSA,53.480538,-1.010656,GB
Campbeltown,medium_airport,CAL,55.437198638916016,-5.686389923095703,GB
Eday,medium_airport,EOI,59.19060134887695,-2.7722198963165283,GB
Fair Isle,small_airport,FIE,59.535801,-1.62806,GB
North Ronaldsay,small_airport,NRL,59.3675003052,-2.43443989754,GB
Papa Westray,small_airport,PPW,59.351699829100006,-2.9002799987800003,GB
Stronsay,small_airport,SOY,59.1553001404,-2.64139008522,GB
Sanday,small_airport,NDY,59.250301361083984,-2.576669931411743,GB
Lerwick,small_airport,LWK,60.192199707,-1.24361002445,GB
Westray,small_airport,WRY,59.3502998352,-2.95000004768,GB
Cardiff,medium_airport,CWL,51.396702,-3.34333,GB
Bristol,medium_airport,BRS,51.382702,-2.71909,GB
Liverpool,medium_airport,LPL,53.333599,-2.84972,GB
London,large_airport,LTN,51.874698638916016,-0.36833301186561584,GB
Land's End,small_airport,LEQ,50.102798,-5.67056,GB
St. Mary's,small_airport,ISC,49.9133,-6.29167,GB
Bournemouth,medium_airport,BOH,50.779999,-1.8425,GB
Southampton,medium_airport,SOU,50.950298,-1.3568,GB
Newquay,medium_airport,NQY,50.440601,-4.99541,GB
Saint Anne,medium_airport,ACI,49.706104,-2.21472,GG
Saint Peter Port,medium_airport,GCI,49.435001,-2.60197,GG
Saint Helier,medium_airport,JER,49.20790100097656,-2.195509910583496,JE
London,large_airport,LGW,51.148102,-0.190278,GB
London,medium_airport,LCY,51.505299,0.055278,GB
London,large_airport,LHR,51.4706,-0.461941,GB
London,medium_airport,SEN,51.5714,0.695556,GB
Blackpool,medium_airport,BLK,53.77170181274414,-3.0286099910736084,GB
Grimsby,medium_airport,HUY,53.57440185546875,-0.350832998752594,GB
Leeds,medium_airport,LBA,53.865898,-1.66057,GB
Castletown,medium_airport,IOM,54.083302,-4.62389,IM
Newcastle,medium_airport,NCL,55.037498,-1.69167,GB
"Darlington, Durham",medium_airport,MME,54.509201,-1.42941,GB
Nottingham,medium_airport,EMA,52.8311,-1.32806,GB
Angelsey,medium_airport,VLY,53.2481002808,-4.53533983231,GB
Orkney Islands,medium_airport,KOI,58.957801818847656,-2.9049999713897705,GB
Lerwick,medium_airport,LSI,59.87889862060547,-1.2955600023269653,GB
Wick,medium_airport,WIC,58.458900451660156,-3.09306001663208,GB
Aberdeen,medium_airport,ABZ,57.2019,-2.19778,GB
Inverness,medium_airport,INV,57.54249954223633,-4.047500133514404,GB
"Paisley, Renfrewshire",large_airport,GLA,55.871899,-4.43306,GB
Edinburgh,large_airport,EDI,55.950145,-3.372288,GB
Port Ellen,medium_airport,ILY,55.68190002441406,-6.256669998168945,GB
"Prestwick, South Ayrshire",medium_airport,PIK,55.502003,-4.587019,GB
Balivanich,medium_airport,BEB,57.48109817504883,-7.3627800941467285,GB
Dundee,medium_airport,DND,56.45249938964844,-3.025830030441284,GB
"Stornoway, Western Isles",medium_airport,SYY,58.215599,-6.33111,GB
Eoligarry,medium_airport,BRR,57.0228,-7.44306,GB
Balemartine,medium_airport,TRE,56.49919891357422,-6.869170188903809,GB
Norwich,medium_airport,NWI,52.6758,1.28278,GB
London,large_airport,STN,51.8849983215,0.234999999404,GB
Exeter,medium_airport,EXT,50.734402,-3.41389,GB
Mount Pleasant,medium_airport,MPN,-51.82279968261719,-58.447200775146484,FK
Amsterdam,large_airport,AMS,52.308601,4.76389,NL
Maastricht,medium_airport,MST,50.911701,5.77014,NL
Eindhoven,large_airport,EIN,51.4500999451,5.37452983856,NL
Groningen,medium_airport,GRQ,53.1197013855,6.57944011688,NL
Lelystad,medium_airport,LEY,52.4603,5.52722,NL
Rotterdam,medium_airport,RTM,51.956902,4.43722,NL
Inverin,small_airport,NNR,53.23030090332031,-9.467780113220215,IE
Cork,medium_airport,ORK,51.841301,-8.49111,IE
Galway,medium_airport,GWY,53.300201416015625,-8.941590309143066,IE
Donegal,medium_airport,CFN,55.0442008972168,-8.340999603271484,IE
Dublin,large_airport,DUB,53.428713,-6.262121,IE
Inis Mór,small_airport,IOR,53.1067008972168,-9.653610229492188,IE
Inis Oírr,small_airport,INQ,53.064701,-9.5109,IE
Charlestown,medium_airport,NOC,53.910301,-8.81849,IE
Killarney,medium_airport,KIR,52.180901,-9.52378,IE
Inis Meáin,small_airport,IIA,53.09299850463867,-9.568059921264648,IE
Shannon,large_airport,SNN,52.702,-8.92482,IE
Waterford,medium_airport,WAT,52.187198638916016,-7.0869598388671875,IE
Ejin Banner,small_airport,EJN,42.0155,101.0005,CN
Enejit Island,small_airport,EJT,6.0404,171.9846,MH
Aarhus,medium_airport,AAR,56.303331,10.618286,DK
Billund,large_airport,BLL,55.7402992249,9.15178012848,DK
Copenhagen,large_airport,CPH,55.617900848389,12.656000137329,DK
Esbjerg,medium_airport,EBJ,55.525902,8.5534,DK
Froðba,heliport,,61.543701,-6.77442,FO
Karup,medium_airport,KRP,56.29750061035156,9.124629974365234,DK
Kirkja,heliport,,62.317141,-6.313314,FO
Klaksvík,heliport,,62.217619,-6.576274,FO
Mykines,heliport,,62.102169,-7.645934,FO
Odense,medium_airport,ODE,55.47669982910156,10.330900192260742,DK
Rønne,medium_airport,RNN,55.06330108642578,14.759599685668945,DK
Sønderborg,medium_airport,SGD,54.96440124511719,9.791729927062988,DK
Sindal,medium_airport,CNL,57.503502,10.2294,DK
Svínoy,heliport,,62.276632,-6.341524,FO
Stóra Dímun,heliport,,61.685308,-6.758497,FO
Skúvoy,heliport,,61.769556,-6.80349,FO
Tórshavn,heliport,,62.021684,-6.757452,FO
Vágar,medium_airport,FAE,62.063256,-7.275782,FO
Aalborg,medium_airport,AAL,57.092759,9.849243,DK
Luxembourg,large_airport,LUX,49.6233333,6.2044444,LU
Ålesund,medium_airport,AES,62.5625,6.1197,NO
Andenes,medium_airport,ANX,69.292503,16.144199,NO
Alta,medium_airport,ALF,69.976097106934,23.371700286865,NO
Førde,small_airport,FDE,61.391102,5.75694,NO
Brønnøy,medium_airport,BNN,65.461098,12.2175,NO
Bodø,medium_airport,BOO,67.269203,14.3653,NO
Bergen,large_airport,BGO,60.2934,5.21814,NO
Båtsfjord,medium_airport,BJF,70.60050201416,29.691400527954,NO
Berlevåg,medium_airport,BVG,70.871399,29.034201,NO
Kjevik,medium_airport,KRS,58.204201,8.08537,NO
Målselv,medium_airport,BDU,69.055801391602,18.540399551392,NO
Evenes,medium_airport,EVE,68.491302490234,16.678100585938,NO
Florø,medium_airport,FRO,61.583599090576,5.0247201919556,NO
Oslo,large_airport,OSL,60.193901,11.1004,NO
Karmøy,medium_airport,HAU,59.345299,5.20836,NO
Hammerfest,medium_airport,HFT,70.679702758789,23.668600082397,NO
Hasvik,small_airport,HAA,70.486701965332,22.139699935913,NO
Honningsvåg,medium_airport,HVG,71.009697,25.983601,NO
Kvernberget,medium_airport,KSU,63.111801,7.82452,NO
Kirkenes,medium_airport,KKN,69.7258,29.8913,NO
Leknes,medium_airport,LKN,68.152496337891,13.609399795532,NO
Mehamn,medium_airport,MEH,71.02970123291,27.826700210571,NO
Årø,medium_airport,MOL,62.744701,7.2625,NO
Mosjøen,medium_airport,MJF,65.783997,13.2149,NO
Lakselv,medium_airport,LKL,70.068802,24.973499,NO
Namsos,small_airport,OSY,64.472198,11.5786,NO
Notodden,medium_airport,NTB,59.565701,9.21222,NO
Ørland,medium_airport,OLA,63.69889831542969,9.604000091552734,NO
Ørsta,medium_airport,HOV,62.180000305176,6.0741000175476,NO
Mo i Rana,medium_airport,MQN,66.363899230957,14.301400184631,NO
Rørvik,medium_airport,RVK,64.838302612305,11.14610004425,NO
Røros,medium_airport,RRS,62.578399658203,11.342300415039,NO
,small_airport,RET,67.527801513672,12.103300094604,NO
Longyearbyen,medium_airport,LYR,78.246101379395,15.465600013733,NO
Sandane,small_airport,SDN,61.830002,6.10583,NO
Sogndal,small_airport,SOG,61.156101,7.13778,NO
Svolvær,medium_airport,SVJ,68.243301,14.6692,NO
Hadsel,medium_airport,SKN,68.578827,15.033417,NO
Leirvik,medium_airport,SRP,59.791901,5.34085,NO
Sørkjosen,medium_airport,SOJ,69.786796569824,20.959400177002,NO
Vardø,medium_airport,VAW,70.355400085449,31.044900894165,NO
Alstahaug,medium_airport,SSJ,65.956802,12.4689,NO
Tromsø,large_airport,TOS,69.683296,18.9189,NO
Torp,medium_airport,TRF,59.1866989136,10.258600235,NO
Trondheim,large_airport,TRD,63.457802,10.924,NO
Vadsø,medium_airport,VDS,70.065299987793,29.844699859619,NO
Værøy,heliport,VRY,67.654555,12.727257,NO
Yan'an (Baota),medium_airport,ENY,36.479413,109.464083,CN
Stavanger,large_airport,SVG,58.876701,5.63778,NO
Bydgoszcz,medium_airport,BZG,53.096802,17.977699,PL
Gdańsk,large_airport,GDN,54.377601623535156,18.46619987487793,PL
Kraków,large_airport,KRK,50.077702,19.7848,PL
Katowice,medium_airport,KTW,50.4743,19.08,PL
Lublin,medium_airport,LUZ,51.240278,22.713611,PL
Łódź,medium_airport,LCJ,51.721900939899996,19.3980998993,PL
Warsaw,medium_airport,WMI,52.451099,20.6518,PL
Poznań,medium_airport,POZ,52.421001,16.8263,PL
Radom,medium_airport,RDO,51.389198,21.213301,PL
Rzeszów,medium_airport,RZE,50.110001,22.018999,PL
Goleniow,medium_airport,SZZ,53.584702,14.9022,PL
Olsztyn,medium_airport,SZY,53.481899,20.9377,PL
Warsaw,large_airport,WAW,52.1656990051,20.967100143399996,PL
Wrocław,medium_airport,WRO,51.102699,16.885799,PL
Babimost,medium_airport,IEG,52.138500213600004,15.7986001968,PL
Ronneby,medium_airport,RNB,56.266701,15.265,SE
Gothenburg,large_airport,GOT,57.662799835205,12.279800415039,SE
Jönköping,medium_airport,JKG,57.757598876953125,14.068699836730957,SE
Trollhättan,medium_airport,THN,58.31809997558594,12.345000267028809,SE
Mora,medium_airport,MXX,60.957901,14.5114,SE
Nyköping,medium_airport,NYO,58.788601,16.912201,SE
Sälen / Trysil,medium_airport,SCR,61.158393,12.842503,SE
Kristianstad,medium_airport,KID,55.92169952392578,14.08549976348877,SE
Kalmar,medium_airport,KLR,56.685501,16.2876,SE
Malmö,medium_airport,MMX,55.536305,13.376198,SE
Halmstad,medium_airport,HAD,56.69110107421875,12.820199966430664,SE
Växjö,medium_airport,VXO,56.929100036621094,14.727999687194824,SE
Sveg,medium_airport,EVG,62.047798,14.4229,SE
Gällivare,medium_airport,GEV,67.13240051269531,20.814599990844727,SE
Nyland,medium_airport,KRF,63.048599,17.7689,SE
Lycksele,medium_airport,LYC,64.548302,18.7162,SE
Sundsvall/ Härnösand,medium_airport,SDL,62.528099060058594,17.443899154663086,SE
Örnsköldsvik,medium_airport,OER,63.40829849243164,18.989999771118164,SE
Kiruna,medium_airport,KRN,67.821998596191,20.336799621582,SE
Skellefteå,medium_airport,SFT,64.62480163574219,21.076900482177734,SE
Umeå,medium_airport,UME,63.791801452637,20.282800674438,SE
Vilhelmina,medium_airport,VHM,64.579102,16.833599,SE
Arvidsjaur,medium_airport,AJR,65.59030151367188,19.28190040588379,SE
Östersund,medium_airport,OSD,63.194400787354,14.50030040741,SE
Örebro,medium_airport,ORB,59.22370147705078,15.038000106811523,SE
Råda,medium_airport,HFS,60.0201,13.5789,SE
Karlstad,medium_airport,KSD,59.444698333699996,13.337400436400001,SE
Stockholm / Västerås,medium_airport,VST,59.58940124511719,16.63360023498535,SE
Luleå,medium_airport,LLA,65.5438,22.122,SE
Stockholm,large_airport,ARN,59.651901245117,17.918600082397,SE
Stockholm,medium_airport,BMA,59.354400634765625,17.941699981689453,SE
Borlange,medium_airport,BLE,60.422001,15.5152,SE
Linköping,medium_airport,LPI,58.4062004089,15.680500030500001,SE
Norrköping,medium_airport,NRK,58.586299896240234,16.250600814819336,SE
Torsby,medium_airport,TYF,60.1576,12.9913,SE
Visby,medium_airport,VBY,57.662799835205,18.346200942993,SE
Ängelholm,medium_airport,AGH,56.29610061645508,12.847100257873535,SE
Storuman,medium_airport,SQO,64.960899,17.6966,SE
Hemavan,medium_airport,HMV,65.806099,15.0828,SE
Shire Inda Selassie,small_airport,SHC,14.075699,38.273592,ET
Rostock,medium_airport,RLG,53.9182014465,12.278300285299999,DE
Liepāja,medium_airport,LPX,56.51750183105469,21.096900939941406,LV
Riga,large_airport,RIX,56.923599,23.9711,LV
Ventspils,medium_airport,VNT,57.35779953,21.5442008972,LV
Excursion Inlet,seaplane_base,EXI,58.420502,-135.449005,US
Kaunas,medium_airport,KUN,54.96390151977539,24.084800720214844,LT
Palanga,medium_airport,PLQ,55.973201751708984,21.093900680541992,LT
Vilnius,large_airport,VNO,54.634102,25.285801,LT
Bloemfontain,medium_airport,BFN,-29.092699,26.302401,ZA
Cape Town,large_airport,CPT,-33.9648017883,18.6016998291,ZA
East London,medium_airport,ELS,-33.035599,27.825899,ZA
George,medium_airport,GRJ,-34.0056,22.378902,ZA
Hoedspruit,small_airport,HDS,-24.368600845299998,31.0487003326,ZA
Kimberley,medium_airport,KIM,-28.802799224900003,24.7651996613,ZA
Mpumalanga,medium_airport,MQP,-25.3831996918,31.1056003571,ZA
Johannesburg,medium_airport,HLA,-25.938499,27.9261,ZA
Durban,large_airport,DUR,-29.6144444444,31.1197222222,ZA
Malamala,medium_airport,AAM,-24.818099975585938,31.544599533081055,ZA
Margate,medium_airport,MGH,-30.8574008942,30.343000412,ZA
Mafeking,medium_airport,MBD,-25.798400878900004,25.548000335699996,ZA
Johannesburg,large_airport,JNB,-26.1392,28.246,ZA
Gqeberha (Port Elizabeth),medium_airport,PLZ,-33.984901,25.6173,ZA
Plettenberg Bay,medium_airport,PBZ,-34.08816,23.328723,ZA
Phalaborwa,medium_airport,PHW,-23.937200546299998,31.1553993225,ZA
Polokwane,medium_airport,,-23.9260997772,29.4843997955,ZA
Pietermaritzburg,medium_airport,PZB,-29.649000167799997,30.3987007141,ZA
Pilanesberg,small_airport,NTY,-25.333799,27.173401,ZA
Polokwane,medium_airport,PTG,-23.845269,29.458615,ZA
Richards Bay,medium_airport,RCB,-28.740999221800003,32.0920982361,ZA
Upington,medium_airport,UTN,-28.39909935,21.260200500499998,ZA
Mthatha,medium_airport,UTT,-31.546363184900002,28.6733551025,ZA
Francistown,medium_airport,FRW,-21.15914,27.468545,BW
Ghanzi,small_airport,GNZ,-21.6924991607666,21.658100128173828,BW
Jwaneng,medium_airport,JWA,-24.602301,24.691,BW
Kasane,medium_airport,BBK,-17.832899,25.162399,BW
Maun,medium_airport,MUB,-19.97260093688965,23.431100845336914,BW
Orapa,small_airport,ORP,-21.265901,25.319667,BW
Gaborone,large_airport,GBE,-24.555201,25.9182,BW
Selebi Phikwe,medium_airport,PKW,-22.0583,27.8288,BW
Shakawe,small_airport,SWX,-18.373899459838867,21.832599639892578,BW
Tuli Lodge,small_airport,TLD,-22.189199447599997,29.126899719199997,BW
Brazzaville,medium_airport,BZV,-4.251699924468994,15.253000259399414,CG
Dolisie,medium_airport,DIS,-4.20635,12.6599,CG
Pointe Noire,medium_airport,PNR,-4.81603,11.8866,CG
Mpaka,large_airport,SHO,-26.358611,31.716944,SZ
Bangui,medium_airport,BGF,4.39847993850708,18.518800735473633,CF
San Antonio de Palé,small_airport,NBN,-1.408615,5.624163,GQ
Bata,medium_airport,BSG,1.90547,9.80568,GQ
Malabo,medium_airport,SSG,3.755270004272461,8.708720207214355,GQ
Cat Hill,medium_airport,ASI,-7.9696,-14.3937,SH
Longwood,small_airport,HLE,-15.957725,-5.645943,SH
Plaine Magnein,large_airport,MRU,-20.430201,57.683601,MU
Port Mathurin,medium_airport,RRG,-19.7577,63.361,MU
Douala,medium_airport,DLA,4.0060801506,9.719479560849999,CM
Maroua,medium_airport,MVR,10.451399803161621,14.257399559020996,CM
N'Gaoundéré,medium_airport,NGE,7.3570098876953125,13.559200286865234,CM
Garoua,medium_airport,GOU,9.33588981628418,13.370100021362305,CM
Yaoundé,medium_airport,YAO,3.8360400199890137,11.523500442504883,CM
Yaoundé,medium_airport,NSI,3.722559928894043,11.553299903869629,CM
Chipata,small_airport,CIP,-13.558300018310547,32.58720016479492,ZM
Livingstone,medium_airport,LVI,-17.8218,25.822701,ZM
Lusaka,large_airport,LUN,-15.330833,28.452722,ZM
Mfuwe,medium_airport,MFU,-13.258899688720703,31.936599731445312,ZM
Ndola,medium_airport,NLA,-12.998512,28.664047,ZM
Solwesi,small_airport,SLI,-12.173700332641602,26.365100860595703,ZM
Moroni,medium_airport,HAH,-11.5337,43.2719,KM
Fomboni,medium_airport,NWA,-12.2981,43.766399,KM
Ouani,medium_airport,AJN,-12.131047,44.430044,KM
Dzaoudzi,medium_airport,DZA,-12.809319,45.281815,YT
St Denis,large_airport,RUN,-20.8871,55.5103,RE
St Pierre,medium_airport,ZSE,-21.320899963378906,55.42499923706055,RE
Antsalova,small_airport,WAQ,-18.701273,44.614921,MG
Antananarivo,large_airport,TNR,-18.7969,47.478802,MG
Ankavandra,small_airport,JVA,-18.80501,45.273467,MG
Belo sur Tsiribihina,small_airport,BMD,-19.6867008209,44.541900634799994,MG
Miandrivazo,medium_airport,ZVA,-19.562799,45.450802,MG
Maintirano,small_airport,MXT,-18.049999,44.033001,MG
Morafenobe,small_airport,TVA,-17.850083,44.920467,MG
Vohilava,medium_airport,SMS,-17.093901,49.8158,MG
Toamasina,medium_airport,TMM,-18.109501,49.392502,MG
Tambohorano,small_airport,WTA,-17.47610092163086,43.972801208496094,MG
Morondava,medium_airport,MOQ,-20.2847,44.3176,MG
Tsiroanomandidy,small_airport,WTS,-18.759677,46.054065,MG
Ambatondrazaka,small_airport,WAM,-17.795378,48.442583,MG
Antisiranana,medium_airport,DIE,-12.3494,49.291698,MG
Mananara Nord,medium_airport,WMR,-16.16390037536621,49.773799896240234,MG
Port Bergé,small_airport,WPB,-15.584286,47.623587,MG
Antsirabe,medium_airport,ANM,-14.9994,50.320202,MG
Ambanja,closed,,-13.644528,48.456595,MG
Analalava,medium_airport,HVA,-14.629514,47.763555,MG
Mahajanga,medium_airport,MJN,-15.666842,46.351233,MG
Nosy Be,medium_airport,NOS,-13.3121,48.3148,MG
Soalala,small_airport,DWB,-16.10169,45.358837,MG
Mampikony,small_airport,WMP,-16.0722693402,47.644164562200004,MG
Besalampy,medium_airport,BPY,-16.74453,44.482484,MG
Maroantsetra,medium_airport,WMN,-15.437742,49.689081,MG
Sambava,medium_airport,SVB,-14.2786,50.174702,MG
Tsaratanana,small_airport,TTS,-16.751064,47.619016,MG
Vohemar,medium_airport,VOH,-13.3758,50.0028,MG
Antsohihy,medium_airport,WAI,-14.898799896240234,47.993900299072266,MG
Mandritsara,small_airport,WMA,-15.845992,48.834718,MG
Tôlanaro,medium_airport,FTU,-25.038099,46.9561,MG
Fianarantsoa,medium_airport,WFI,-21.441601,47.111698,MG
Farafangana,small_airport,RVA,-22.8053,47.820599,MG
Manja,small_airport,MJA,-21.426105,44.316509,MG
Manakara,medium_airport,WVK,-22.119699,48.021702,MG
Mananjary,medium_airport,MNJ,-21.201799,48.358299,MG
Morombe,medium_airport,MXM,-21.753837,43.374753,MG
Toliara,medium_airport,TLE,-23.3834,43.7285,MG
Mbanza Congo,medium_airport,SSY,-6.269899845123291,14.246999740600586,AO
Cabinda,medium_airport,CAB,-5.59699010848999,12.188400268554688,AO
Catumbela,medium_airport,CBT,-12.4792,13.4869,AO
Funadhoo,small_airport,FND,6.162443,73.28752,MV
Chitato,medium_airport,DUE,-7.400889873504639,20.818500518798828,AO
Ngiva,medium_airport,VPE,-17.0435009003,15.683799743700002,AO
Huambo,medium_airport,NOV,-12.808899879455566,15.760499954223633,AO
Luanda,large_airport,LAD,-8.85837,13.2312,AO
Malanje,medium_airport,MEG,-9.525090217590332,16.312400817871094,AO
Menongue,medium_airport,SPP,-14.657600402832031,17.71980094909668,AO
Moçâmedes,medium_airport,MSZ,-15.2612,12.1468,AO
Negage,medium_airport,GXG,-7.754509925842285,15.287699699401855,AO
Soyo,medium_airport,SZA,-6.141089916229248,12.371800422668457,AO
Lubango,medium_airport,SDD,-14.924699783325195,13.574999809265137,AO
Koltur,heliport,,61.984601,-6.963484,FO
Koulamoutou,medium_airport,KOU,-1.1846100091934,12.441300392151,GA
Mouila,medium_airport,MJL,-1.845139980316162,11.056699752807617,GA
Oyem,medium_airport,OYE,1.5431100130081177,11.581399917602539,GA
Port Gentil,medium_airport,POG,-0.7117390036582947,8.754380226135254,GA
Makokou,medium_airport,MKU,0.5792109966278076,12.890899658203125,GA
Libreville,medium_airport,LBV,0.458600014448,9.412280082699999,GA
Franceville,medium_airport,MVB,-1.6561599969863892,13.437999725341797,GA
Tchibanga,small_airport,TCH,-2.88848,10.955429,GA
São Tomé & Príncipe,medium_airport,PCP,1.66294,7.41174,ST
São Tomé,medium_airport,TMS,0.378175,6.71215,ST
Beira,medium_airport,BEW,-19.79640007019043,34.90760040283203,MZ
Chimoio,medium_airport,VPY,-19.15130043029785,33.42900085449219,MZ
Inhambane,medium_airport,INH,-23.8764,35.408501,MZ
Lichinga,medium_airport,VXC,-13.274,35.2663,MZ
Maputo,large_airport,MPM,-25.920799,32.572601,MZ
Nampula,medium_airport,APL,-15.105600357055664,39.28179931640625,MZ
Pemba / Porto Amelia,medium_airport,POL,-12.991762161254883,40.52401351928711,MZ
Quelimane,medium_airport,UEL,-17.855499267578125,36.86909866333008,MZ
Tete,medium_airport,TET,-16.104799270629883,33.640201568603516,MZ
Vilanculo,medium_airport,VNX,-22.018400192260742,35.31330108642578,MZ
Cannes,heliport,JCA,43.5359992980957,7.037360191345215,FR
Alphonse Island,small_airport,,-7.00478,52.7262,SC
Mahe Island,large_airport,SEZ,-4.67434,55.521801,SC
Grand Anse,medium_airport,PRI,-4.31929,55.691399,SC
Sarh,small_airport,SRH,9.14444,18.374399,TD
Abeche,medium_airport,AEH,13.847,20.844299,TD
Moundou,medium_airport,MQQ,8.62441,16.0714,TD
N'Djamena,large_airport,NDJ,12.1337,15.034,TD
Bulawayo,medium_airport,BUQ,-20.017401,28.617901,ZW
Victoria Falls,medium_airport,VFA,-18.09589958190918,25.839000701904297,ZW
Harare,large_airport,HRE,-17.931801,31.0928,ZW
Blantyre,medium_airport,BLZ,-15.679100036621094,34.9739990234375,MW
Club Makokola,small_airport,CMK,-14.306483,35.131477,MW
Lilongwe,medium_airport,LLW,-13.7894001007,33.78099823,MW
Mzuzu,medium_airport,ZZU,-11.444700241088867,34.01179885864258,MW
Maseru,medium_airport,MSU,-29.462299346923828,27.552499771118164,LS
Halali,small_airport,HAL,-19.0285,16.4585,NA
Luderitz,medium_airport,LUD,-26.687400817871094,15.242899894714355,NA
Ondangwa,medium_airport,OND,-17.878201,15.9526,NA
Oranjemund,medium_airport,OMD,-28.5847,16.446699,NA
Rundu,medium_airport,NDU,-17.956499099731,19.719400405884,NA
Swakopmund,small_airport,SWP,-22.6619,14.5681,NA
Walvis Bay,medium_airport,WVB,-22.9799,14.6453,NA
Windhoek,medium_airport,ERS,-22.612199783325195,17.080400466918945,NA
Windhoek,large_airport,WDH,-22.4799,17.4709,NA
Kinshasa,large_airport,FIH,-4.38575,15.4446,CD
Muanda,small_airport,MNB,-5.930637,12.351334,CD
Boma,small_airport,BOA,-5.854,13.064,CD
Matadi,small_airport,MAT,-5.799610137939453,13.440400123596191,CD
Inongo,small_airport,INO,-1.947219967842102,18.28580093383789,CD
Nioki,small_airport,NIO,-2.7174999713897705,17.68470001220703,CD
Bandundu,medium_airport,FDU,-3.31132,17.381701,CD
Kiri,small_airport,KRZ,-1.434999942779541,19.02400016784668,CD
Kikwit,medium_airport,KKW,-5.03577,18.785601,CD
Mbandaka,medium_airport,MDK,0.0226000007242,18.2887001038,CD
Basankusu,small_airport,BSU,1.22472,19.7889,CD
Gbadolite,medium_airport,BDT,4.25321,20.9753,CD
Gemena,medium_airport,GMA,3.2353699207299997,19.771299362199997,CD
Kisangani,medium_airport,FKI,0.481638997793,25.3379993439,CD
,medium_airport,IRP,2.8276100158691406,27.588300704956055,CD
,medium_airport,BUX,1.5657199621200562,30.220800399780273,CD
Goma,medium_airport,GOM,-1.6708099842071533,29.238500595092773,CD
Kindu,medium_airport,KND,-2.91917991638,25.915399551399997,CD
Lubumbashi,medium_airport,FBM,-11.5913000107,27.5308990479,CD
,medium_airport,KWZ,-10.765899658203125,25.505699157714844,CD
,medium_airport,FMI,-5.8755598068237305,29.25,CD
Kamina,small_airport,KMN,-8.72861,24.9914,CD
Kananga,medium_airport,KGA,-5.90005016327,22.4692001343,CD
Tshikapa,small_airport,TSH,-6.43833,20.794701,CD
Lodja,small_airport,LJA,-3.462745,23.615162,CD
Tshumbe,small_airport,,-4.099999904632568,24.367000579833984,CD
Ilebo,small_airport,PFR,-4.329919,20.590124,CD
Mbuji Mayi,medium_airport,MJM,-6.121240139010001,23.569000244099996,CD
Gamba,small_airport,GAX,-2.785278,10.047222,GA
Bamako,large_airport,BKO,12.5335,-7.94994,ML
,medium_airport,GAQ,16.2484,-0.005456,ML
,medium_airport,KYS,14.4812,-11.4044,ML
Sévaré,medium_airport,MZI,14.5128,-4.07956,ML
Timbuktu,medium_airport,TOM,16.730499,-3.00758,ML
Foula,small_airport,FOA,60.121725,-2.053202,GB
Papa Stour Island,small_airport,PSV,60.321701,-1.69306,GB
Banjul,large_airport,BJL,13.338,-16.652201,GM
El Matorral,large_airport,FUE,28.4527,-13.8638,ES
"Alajero, La Gomera Island",small_airport,GMZ,28.0296,-17.2146,ES
El Hierro Island,medium_airport,VDE,27.8148,-17.8871,ES
"Sta Cruz de la Palma, La Palma Island",medium_airport,SPC,28.626499,-17.7556,ES
Gran Canaria Island,large_airport,LPA,27.9319,-15.3866,ES
San Bartolomé,large_airport,ACE,28.945499,-13.6052,ES
Tenerife,large_airport,TFS,28.0445,-16.5725,ES
Tenerife,medium_airport,TFN,28.4827,-16.341499,ES
Ceuta,heliport,JCU,35.892657,-5.306321,ES
Melilla,medium_airport,MLN,35.2798,-2.95626,ES
Bonthe,closed,,7.53242,-12.5189,SL
Bo,medium_airport,KBS,7.9444,-11.761,SL
Kenema,medium_airport,KEN,7.896364,-11.174126,SL
Freetown (Lungi-Town),large_airport,FNA,8.61644,-13.1955,SL
Yengema,medium_airport,WYE,8.610469818115234,-11.04539966583252,SL
Bissau,medium_airport,OXB,11.894800186157227,-15.65369987487793,GW
Kangilinnguit,closed,,61.237704,-48.105526,GL
Akunnaaq,heliport,QCU,68.744273,-52.340369,GL
Monrovia,medium_airport,MLW,6.289060115814209,-10.758700370788574,LR
Monrovia,large_airport,ROB,6.23379,-10.3623,LR
Agadir (Temsia),medium_airport,AGA,30.322478,-9.412003,MA
Tan Tan,medium_airport,TTA,28.448200225830078,-11.161299705505371,MA
Saïss,medium_airport,FEZ,33.927299,-4.97796,MA
Errachidia,medium_airport,ERH,31.9475002289,-4.39833021164,MA
Ahl Angad,medium_airport,OUD,34.789558,-1.926041,MA
Smara,medium_airport,SMW,26.731987,-11.683655,EH
Oulad Yaich,small_airport,BEM,32.401895,-6.315905,MA
Rabat,medium_airport,RBA,34.051498,-6.75152,MA
Dakhla,medium_airport,VIL,23.7183,-15.932,EH
Essaouira,medium_airport,ESU,31.397499,-9.68167,MA
El Aaiún,medium_airport,EUN,27.142467,-13.224947,EH
Casablanca,large_airport,CMN,33.36750030517578,-7.589970111846924,MA
Al Aaroui,medium_airport,NDR,34.9888,-3.02821,MA
Marrakech,medium_airport,RAK,31.606899261499997,-8.03629970551,MA
Ouarzazate,medium_airport,OZZ,30.9391002655,-6.909430027010001,MA
Golog (Maqên),medium_airport,GMQ,34.418066,100.301144,CN
Al Hoceima,medium_airport,AHU,35.177101135253906,-3.83951997756958,MA
Tangier,medium_airport,TNG,35.731741,-5.921459,MA
Dakar,large_airport,DSS,14.67,-17.073333,SN
Ziguinchor,medium_airport,ZIG,12.5556,-16.281799,SN
Cap Skirring,medium_airport,CSK,12.39533,-16.748,SN
Ouro Sogui,medium_airport,MAX,15.5936,-13.3228,SN
Saint Louis,medium_airport,XLS,16.049814,-16.461039,SN
Tambacounda,medium_airport,TUD,13.736800193786621,-13.65310001373291,SN
Nouakchott,large_airport,NKC,18.31,-15.9697222,MR
Nouadhibou,medium_airport,NDB,20.9330997467041,-17.030000686645508,MR
Conakry,medium_airport,CKY,9.57689,-13.612,GN
Espargos,large_airport,SID,16.7414,-22.9494,CV
Rabil,medium_airport,BVC,16.136499404907227,-22.888900756835938,CV
Vila do Maio,medium_airport,MMO,15.155900001525879,-23.213699340820312,CV
Praia,medium_airport,RAI,14.924500465393066,-23.493499755859375,CV
São Filipe,small_airport,SFL,14.8850002289,-24.4799995422,CV
Preguiça,medium_airport,SNE,16.588852,-24.284132,CV
São Pedro,medium_airport,VXE,16.8332,-25.0553,CV
Botopasi,small_airport,BTO,4.21751109352,-55.4470539093,SR
Djumu-Djomoe,small_airport,DOE,4.00571261057,-55.4816436768,SR
Aurora,small_airport,LDO,4.37610828345,-55.407056808499995,SR
Addis Ababa,large_airport,ADD,8.97789,38.799301,ET
,medium_airport,AMH,6.0393900871276855,37.59049987792969,ET
Axum,medium_airport,AXU,14.1468,38.7728,ET
Bahir Dar,medium_airport,BJR,11.6081,37.321602,ET
Beica,small_airport,BEI,9.38639,34.5219,ET
Dessie,small_airport,DSE,11.082500457763672,39.71139907836914,ET
Dembidollo,small_airport,DEM,8.554,34.858002,ET
Dire Dawa,medium_airport,DIR,9.624699592590332,41.85419845581055,ET
Gambela,medium_airport,GMB,8.12876,34.563099,ET
Azezo,medium_airport,GDQ,12.5199,37.433998,ET
Gode,medium_airport,GDE,5.93513011932,43.5786018372,ET
Gore,small_airport,GOR,8.1614,35.5529,ET
Jijiga,medium_airport,JIJ,9.3325,42.9121,ET
Jimma,medium_airport,JIM,7.66609001159668,36.81660079956055,ET
Kebri Dahar,medium_airport,ABK,6.732577,44.241339,ET
Mizan Teferi,small_airport,MTF,6.9571,35.5547,ET
Semera,small_airport,SZE,11.7875,40.9915,ET
Asosa,medium_airport,ASO,10.018500328063965,34.586299896240234,ET
Tippi,small_airport,TIE,7.2024,35.415,ET
Bujumbura,medium_airport,BJM,-3.32402,29.318501,BI
Kirundo,small_airport,KRE,-2.544772,30.094575,BI
Haibei (Qilian),small_airport,HBQ,38.008068,100.645065,CN
Hambantota,seaplane_base,HBT,6.124043,81.103,LK
Bosaso,small_airport,BSA,11.275235,49.139231,SO
Hargeisa,medium_airport,HGA,9.513207,44.082389,SO
Berbera,medium_airport,BBO,10.385035,44.936723,SO
Mogadishu,medium_airport,MGQ,2.0144400596618652,45.3046989440918,SO
Beledweyne,small_airport,BLW,4.766976,45.2388,SO
Galcaio,small_airport,GLK,6.78082990646,47.45470047,SO
Garowe,small_airport,GGR,8.457942,48.567407,SO
Djibouti City,large_airport,JIB,11.5473,43.1595,DJ
El Alamein,medium_airport,DBB,30.930326,28.463076,EG
El Arish,medium_airport,AAC,31.078565,33.836791,EG
Asyut,medium_airport,ATZ,27.050818,31.016309,EG
Alexandria,medium_airport,HBE,30.93249,29.696437,EG
Abu Simbel,medium_airport,ABS,22.367657,31.609962,EG
Cairo,large_airport,CAI,30.111534,31.396694,EG
Hurghada,large_airport,HRG,27.180325,33.807292,EG
Luxor,medium_airport,LXR,25.674629,32.700012,EG
Marsa Alam,medium_airport,RMF,25.555548,34.59245,EG
Marsa Matruh,medium_airport,MUH,31.338225,27.217577,EG
Suhaj,medium_airport,HMB,26.339115,31.737624,EG
Sharm El Sheikh,large_airport,SSH,27.978902,34.385598,EG
Aswan,medium_airport,ASW,23.968137,32.824445,EG
Siwa Oasis,small_airport,SEW,29.3389,25.51285,EG
Taba,medium_airport,TCP,29.594496,34.775752,EG
Asmara,medium_airport,ASM,15.291899681091309,38.910701751708984,ER
Massawa,medium_airport,MSW,15.670000076293945,39.37009811401367,ER
Asab,medium_airport,ASA,13.071800231933594,42.64500045776367,ER
Huai'an,medium_airport,HIA,33.790833,119.125,CN
Shilavo,small_airport,HIL,6.077545,44.763736,ET
Juba,large_airport,JUB,4.87201,31.601101,SS
Amboseli National Park,medium_airport,ASV,-2.645050048828125,37.25310134887695,KE
Healy Lake,small_airport,HKB,63.9958,-144.6926,US
Eldoret,medium_airport,EDL,0.4044579863548279,35.23889923095703,KE
Nairobi,large_airport,NBO,-1.31923997402,36.9277992249,KE
Kisumu,medium_airport,KIS,-0.0861390009522438,34.72890090942383,KE
Lokichoggio,medium_airport,LKG,4.20412015914917,34.348201751708984,KE
Lamu,medium_airport,LAU,-2.252431,40.912892,KE
Meru-Kinna,small_airport,JJM,0.165083,38.195141,KE
Malindi,medium_airport,MYD,-3.2293100357055664,40.10169982910156,KE
Mombasa,large_airport,MBA,-4.03483,39.5942,KE
Masai Mara,medium_airport,MRE,-1.406111,35.008057,KE
Nakuru,small_airport,NUU,-0.298067,36.159302,KE
Nairobi,medium_airport,WIL,-1.321720004081726,36.81480026245117,KE
Nanyuki,medium_airport,NYK,-0.062399,37.041008,KE
Wajir,medium_airport,WJR,1.73324,40.091599,KE
Sirt,medium_airport,SRX,31.063499,16.594999,LY
Ghat,medium_airport,GHT,25.1455993652,10.142600059500001,LY
Kufra,medium_airport,AKF,24.178699493408203,23.31399917602539,LY
Benina,medium_airport,BEN,32.096802,20.269501,LY
Tripoli,large_airport,MJI,32.89177,13.287878,LY
Al Albraq,medium_airport,LAQ,32.7887,21.9643,LY
Sabha,medium_airport,SEB,26.992452,14.466162,LY
Ghadames,medium_airport,LTD,30.15169906616211,9.715310096740723,LY
Adam,small_airport,TOB,31.861,23.907,LY
Kigali,large_airport,KGL,-1.96863,30.1395,RW
Kamembe,medium_airport,KME,-2.462239980697632,28.907899856567383,RW
Atbara,small_airport,ATB,17.710344314575195,34.0570182800293,SD
Dongola,medium_airport,DOG,19.153900146499996,30.430099487299998,SD
El Fasher,medium_airport,ELF,13.614899635314941,25.324600219726562,SD
Kassala,medium_airport,KSL,15.387499809265137,36.328800201416016,SD
Rumbek,small_airport,RBX,6.831074,29.669073,SS
Nyala,medium_airport,UYL,12.0535,24.9562,SD
El-Obeid,medium_airport,EBD,13.1532,30.2327,SD
Port Sudan,medium_airport,PZU,19.4335994720459,37.234100341796875,SD
Khartoum,large_airport,KRT,15.5895,32.5532,SD
Malakal,medium_airport,MAK,9.55897,31.652201,SS
Wadi Halfa,small_airport,WHF,21.802698,31.521578,SD
Wau,medium_airport,WUU,7.72583,27.975,SS
Arusha,medium_airport,ARK,-3.3677899837493896,36.63330078125,TZ
Bukoba,small_airport,BKZ,-1.332,31.8212,TZ
Dar es Salaam,large_airport,DAR,-6.87811,39.202599,TZ
Dodoma,medium_airport,DOD,-6.17044,35.752602,TZ
Mbeya,medium_airport,MBI,-8.919942,33.273981,TZ
Kigoma,small_airport,TKQ,-4.8862,29.6709,TZ
Arusha,medium_airport,JRO,-3.42941,37.074501,TZ
Lindi,small_airport,LDI,-9.851005,39.75911,TZ
Mtwara,medium_airport,MYW,-10.336204,40.181997,TZ
Musoma,small_airport,MUZ,-1.503,33.8021,TZ
Mwanza,medium_airport,MWZ,-2.4444899559020996,32.932701110839844,TZ
Shinyanga,small_airport,SHY,-3.6093,33.5035,TZ
Tabora,small_airport,TBO,-5.076389789581299,32.83330154418945,TZ
Tanga,medium_airport,TGT,-5.09236,39.071201,TZ
Zanzibar,large_airport,ZNZ,-6.22202,39.224899,TZ
Arua,medium_airport,RUA,3.049152,30.911714,UG
Kampala,large_airport,EBB,0.042386,32.443501,UG
Gulu,medium_airport,ULU,2.8055601119995117,32.27180099487305,UG
Soroti,medium_airport,SRT,1.7276899814605713,33.622798919677734,UG
Hollis,seaplane_base,HYL,55.4816017151,-132.645996094,US
Okpahik,small_airport,,-4.697855,140.770547,ID
Jember,small_airport,JBB,-8.242494,113.693476,ID
Banyuwangi,small_airport,BWX,-8.31015,114.3401,ID
Pulau-Pulau Batu,small_airport,,-0.01924,98.30097,ID
Pemuteran,small_airport,,-8.14055555556,114.616666667,ID
,heliport,,-8.728055555560001,115.166111111,ID
Binsari,small_airport,,-4.725525,140.792284,ID
Iwur,small_airport,,-5.139139,140.717638,ID
Kiwi,small_airport,,-4.697841,140.722425,ID
Long Rungan,small_airport,,3.5994,115.8418,ID
Oklip,small_airport,,-4.762095,140.780554,ID
Okyap,small_airport,,-4.743448,140.848267,ID
Sape,small_airport,,-4.7655,140.5054,ID
Singkil,small_airport,,2.2695,97.9666,ID
Sumtamon,small_airport,,-4.8083,140.1715,ID
Yapil,small_airport,,-4.540447,140.565691,ID
Bawean,small_airport,BXW,-5.723628,112.678889,ID
Awimbon,small_airport,,-5.165884,140.381568,ID
Kubibkop,small_airport,,-4.79436,140.69447,ID
Pegunungan Bintang,small_airport,,-4.891004,140.74213,ID
Tarup,small_airport,,-5.097671,140.821627,ID
Pegunungan Bintang,small_airport,,-4.824475,140.87378,ID
Okbab,small_airport,,-4.586015,140.499844,ID
Alemson,small_airport,,-4.816571,140.222819,ID
Pegunungan Bintang Regency,small_airport,,-4.638376,140.654907,ID
Pegunungan Bintang Regency,small_airport,,-4.605771,140.634806,ID
Binban,small_airport,,-4.585309,140.533962,ID
Kaklup,small_airport,,-4.620771,140.531688,ID
Pegunungan Bintang Regency,small_airport,,-4.58066,140.515995,ID
Pegunungan Bintang Regency,small_airport,,-4.539485,140.462018,ID
Dumpasik,small_airport,,-4.455194,140.508871,ID
Bordamban,small_airport,,-4.439924,140.484527,ID
Pegunungan Bintang Regency,small_airport,,-4.464786,140.393016,ID
Hangmata,small_airport,,-4.49226,140.657322,ID
Kolaka,medium_airport,KXB,-4.341217,121.523983,ID
Sungai Penuh,small_airport,KRC,-2.093,101.4683,ID
Tumbang Samba-Borneo Island,small_airport,TBM,-1.4694,113.0833,ID
Sugapa,medium_airport,UGU,-3.739503,137.031183,ID
,small_airport,,25.661487579345703,90.34503936767578,IN
Pune,small_airport,,18.226944,74.590833,IN
Faizabad,small_airport,,26.7511282,82.1543651,IN
Saiha,heliport,,22.4885833333,92.98695,IN
Sultanpur,small_airport,,26.2475,82.0425,IN
Chipi,small_airport,,16.002552,73.529846,IN
Jagdalpur,small_airport,JGB,19.074301,82.036797,IN
Jalgaon,small_airport,,20.962678,75.627492,IN
Ishigaki,medium_airport,ISG,24.396389,124.245,JP
Peschici,heliport,,41.92814,16.012815,IT
Tremiti Islands,heliport,TQR,42.117775,15.490655,IT
Jiagedaqi,medium_airport,JGD,50.371389,124.1175,CN
Jinchang,small_airport,JIC,38.542222,102.348333,CN
Tiakur,small_airport,JIO,-8.140402,127.908758,ID
Qianjiang,medium_airport,JIQ,29.5133333333,108.831111111,CN
Cruz,medium_airport,JJD,-2.906425,-40.357338,BR
"Linghai, Jinzhou",medium_airport,JNZ,40.936032,121.277114,CN
New York,heliport,JRA,40.754501,-74.007103,US
Chizhou,small_airport,JUH,30.7403,117.6856,CN
Allentown,medium_airport,ABE,40.651773,-75.442797,US
Abilene,medium_airport,ABI,32.4113006592,-99.68190002440001,US
Albuquerque,medium_airport,ABQ,35.040199,-106.609001,US
Aberdeen,medium_airport,ABR,45.449100494384766,-98.42179870605469,US
Albany,medium_airport,ABY,31.532946,-84.196215,US
Nantucket,medium_airport,ACK,41.25310135,-70.06020355,US
Waco,medium_airport,ACT,31.611299514770508,-97.23049926757812,US
Arcata/Eureka,medium_airport,ACV,40.978101,-124.109,US
Atlantic City,medium_airport,ACY,39.45759963989258,-74.57720184326172,US
Alexandria,medium_airport,AEX,31.3274,-92.549797,US
Augusta,medium_airport,AGS,33.3699,-81.9645,US
Athens,medium_airport,AHN,33.94860076904297,-83.32630157470703,US
Albany,medium_airport,ALB,42.74829864501953,-73.80169677734375,US
Waterloo,medium_airport,ALO,42.557098388671875,-92.40029907226562,US
Alamosa,medium_airport,ALS,37.434898,-105.866997,US
Walla Walla,medium_airport,ALW,46.09489822,-118.288002,US
Amarillo,medium_airport,AMA,35.219398,-101.706001,US
Altoona,medium_airport,AOO,40.296398,-78.32,US
Alpena,medium_airport,APN,45.0780983,-83.56030273,US
Watertown,medium_airport,ART,43.991901,-76.021698,US
Aspen,medium_airport,ASE,39.22320175,-106.8690033,US
Atlanta,large_airport,ATL,33.6367,-84.428101,US
Appleton,small_airport,ATW,44.258099,-88.519096,US
Watertown,medium_airport,ATY,44.91400146,-97.15470123,US
Augusta,medium_airport,AUG,44.320598602299995,-69.7973022461,US
Austin,large_airport,AUS,30.197535,-97.662015,US
Asheville,medium_airport,AVL,35.436199,-82.541801,US
Wilkes-Barre/Scranton,medium_airport,AVP,41.338500976599995,-75.72339630130001,US
Kalamazoo,medium_airport,AZO,42.234901428222656,-85.5521011352539,US
Branson,small_airport,BKG,36.532082,-93.200544,US
Hartford,medium_airport,BDL,41.93851,-72.688066,US
Bridgeport,medium_airport,BDR,41.16350173950195,-73.1261978149414,US
Bradford,medium_airport,BFD,41.8031005859375,-78.64009857177734,US
Scottsbluff,medium_airport,BFF,41.87400055,-103.5960007,US
Seattle,medium_airport,BFI,47.529999,-122.302002,US
Bakersfield,medium_airport,BFL,35.433601,-119.056999,US
Binghamton,medium_airport,BGM,42.20869827,-75.97979736,US
Bangor,medium_airport,BGR,44.8074,-68.828102,US
Bar Harbor,medium_airport,BHB,44.45000076,-68.3615036,US
Birmingham,medium_airport,BHM,33.562901,-86.753502,US
Block Island,small_airport,BID,41.1680984497,-71.577796936,US
Beatrice,small_airport,BIE,40.301300048799995,-96.75409698490002,US
Billings,medium_airport,BIL,45.807701,-108.542999,US
Bismarck,medium_airport,BIS,46.772701263427734,-100.74600219726562,US
Beckley,medium_airport,BKW,37.787300109899995,-81.1241989136,US
Bluefield,medium_airport,BLF,37.295799,-81.207703,US
Bellingham,medium_airport,BLI,48.79280090332031,-122.53800201416016,US
Belleville,medium_airport,BLV,38.5452,-89.835197,US
Bloomington/Normal,medium_airport,BMI,40.4771,-88.915901,US
Nashville,large_airport,BNA,36.1245002746582,-86.6781997680664,US
Boise,medium_airport,BOI,43.5644,-116.223,US
Boston,large_airport,BOS,42.3643,-71.005203,US
Beaumont/Port Arthur,medium_airport,BPT,29.9508,-94.020699,US
Brunswick,medium_airport,BQK,31.258800506591797,-81.46649932861328,US
Brainerd,medium_airport,BRD,46.402861,-94.129727,US
Burlington,medium_airport,BRL,40.783199310302734,-91.12550354003906,US
Brownsville,medium_airport,BRO,25.90679931640625,-97.4259033203125,US
Kaben,small_airport,KBT,8.90056,170.843994,MH
Butte,medium_airport,BTM,45.95479965209961,-112.49700164794922,US
Baton Rouge,medium_airport,BTR,30.533199,-91.149597,US
South Burlington,medium_airport,BTV,44.471901,-73.153297,US
Buffalo,large_airport,BUF,42.94049835,-78.73220062,US
Burbank,medium_airport,BUR,34.197703,-118.356378,US
Baltimore,large_airport,BWI,39.1754,-76.668297,US
Bozeman,medium_airport,BZN,45.77750015,-111.1529999,US
Columbia,medium_airport,CAE,33.938801,-81.119499,US
Akron,medium_airport,CAK,40.916099548339844,-81.44219970703125,US
Cedar City,medium_airport,CDC,37.70100021362305,-113.0989990234375,US
Crescent City,medium_airport,CEC,41.78020096,-124.2369995,US
Cape Girardeau,medium_airport,CGI,37.2253,-89.570801,US
Chattanooga,medium_airport,CHA,35.035301,-85.203796,US
Charlottesville,medium_airport,CHO,38.13859939575195,-78.4529037475586,US
Charleston,medium_airport,CHS,32.898602,-80.040497,US
Cedar Rapids,medium_airport,CID,41.884701,-91.7108,US
Sault Ste Marie,medium_airport,CIU,46.25080108642578,-84.47239685058594,US
Bridgeport,medium_airport,CKB,39.2966,-80.228104,US
Cleveland,large_airport,CLE,41.4117012024,-81.8498001099,US
College Station,medium_airport,CLL,30.58860016,-96.36380005,US
Port Angeles,medium_airport,CLM,48.120201110839844,-123.5,US
Charlotte,large_airport,CLT,35.2140007019043,-80.94309997558594,US
Columbus,large_airport,CMH,39.998001,-82.891899,US
Savoy,medium_airport,CMI,40.039819,-88.276249,US
Hancock,medium_airport,CMX,47.168399810791016,-88.48909759521484,US
Carlsbad,medium_airport,CNM,32.337501525878906,-104.26300048828125,US
Colorado Springs,medium_airport,COS,38.805801,-104.700996,US
Columbia,medium_airport,COU,38.8181,-92.219597,US
Casper,medium_airport,CPR,42.908001,-106.463997,US
Corpus Christi,medium_airport,CRP,27.770399,-97.501198,US
Charleston,medium_airport,CRW,38.3731,-81.593201,US
Columbus,medium_airport,CSG,32.516300201416016,-84.93890380859375,US
Cincinnati / Covington,large_airport,CVG,39.048801,-84.667801,US
Cheyenne,medium_airport,,41.155701,-104.811997,US
Daytona Beach,medium_airport,DAB,29.179899,-81.058098,US
Dallas,medium_airport,DAL,32.847099,-96.851799,US
Dayton,medium_airport,DAY,39.902401,-84.219398,US
Dubuque,medium_airport,DBQ,42.402,-90.709503,US
Washington,large_airport,DCA,38.8521,-77.037697,US
Dodge City,medium_airport,DDC,37.76340103149414,-99.9655990600586,US
Decatur,medium_airport,DEC,39.834598541259766,-88.8656997680664,US
Denver,large_airport,DEN,39.861698150635,-104.672996521,US
Dallas-Fort Worth,large_airport,DFW,32.896801,-97.038002,US
Dothan,medium_airport,DHN,31.321300506591797,-85.44960021972656,US
Duluth,medium_airport,DLH,46.842098,-92.193604,US
Des Moines,medium_airport,DSM,41.534,-93.663101,US
Detroit,large_airport,DTW,42.212398529052734,-83.35340118408203,US
Dubois,medium_airport,DUJ,41.17829895,-78.8986969,US
Kandy,seaplane_base,KDZ,7.3251,80.6422,LK
Kearney,medium_airport,EAR,40.727001,-99.006798,US
Eau Claire,medium_airport,EAU,44.86579895019531,-91.48429870605469,US
Panama City Beach,medium_airport,ECP,30.357106,-85.795414,US
Eagle,medium_airport,EGE,39.64260101,-106.9179993,US
Elko,medium_airport,EKO,40.82490158081055,-115.79199981689453,US
El Dorado,medium_airport,ELD,33.221001,-92.813301,US
Elmira/Corning,medium_airport,ELM,42.1599006652832,-76.8916015625,US
El Paso,medium_airport,ELP,31.80719948,-106.3779984,US
Erie,medium_airport,ERI,42.083127,-80.173867,US
Eugene,medium_airport,EUG,44.12459945678711,-123.21199798583984,US
Evansville,medium_airport,EVV,38.0369987488,-87.5324020386,US
New Bedford,medium_airport,EWB,41.67610168457031,-70.95690155029297,US
New Bern,medium_airport,EWN,35.0730018616,-77.04290008539999,US
Newark,large_airport,EWR,40.692501,-74.168701,US
Key West,medium_airport,EYW,24.556101,-81.759598,US
Fargo,medium_airport,FAR,46.92070007324219,-96.81580352783203,US
Fresno,medium_airport,FAT,36.776199,-119.718002,US
Fayetteville,medium_airport,FAY,34.991199,-78.880302,US
Friday Harbor,small_airport,FRD,48.5219993591,-123.024002075,US
Fort Huachuca / Sierra Vista,medium_airport,FHU,31.587383,-110.348225,US
Flagstaff,medium_airport,FLG,35.1385,-111.670998,US
Fort Lauderdale,large_airport,FLL,26.072599,-80.152702,US
Florence,medium_airport,FLO,34.18539810180664,-79.7238998413086,US
Flint,medium_airport,FNT,42.96540069580078,-83.74359893798828,US
Fort Dodge,medium_airport,FOD,42.55149841,-94.19259644,US
Sioux Falls,medium_airport,FSD,43.585463,-96.741152,US
Fort Smith,medium_airport,FSM,35.336601,-94.367401,US
Fort Wayne,medium_airport,FWA,40.9785,-85.195099,US
Jalal-Abad,medium_airport,,40.944401,72.977798,KG
Naryn,small_airport,,41.44150161739999,76.13059997559999,KG
Talas,small_airport,,42.5059013367,72.2630996704,KG
Tamga,small_airport,,42.1530990601,77.5639038086,KG
Tokmok,small_airport,,42.828899383499994,75.33599853519999,KG
Kerben,small_airport,,41.484500885,71.7337036133,KG
Kyzyl-Kiya,small_airport,,40.271701812699995,72.0470962524,KG
Gillette,medium_airport,GCC,44.3489,-105.539001,US
Garden City,medium_airport,GCK,37.9275016785,-100.723999023,US
Grand Canyon - Tusayan,medium_airport,GCN,35.9524,-112.147003,US
Spokane,medium_airport,GEG,47.6199,-117.533997,US
Grand Forks,medium_airport,GFK,47.949299,-97.176102,US
Longview,medium_airport,GGG,32.38399887084961,-94.71150207519531,US
Glasgow,medium_airport,GGW,48.212502,-106.614998,US
Grand Junction,medium_airport,GJT,39.126663,-108.529387,US
Greenville,medium_airport,GLH,33.4828987121582,-90.98560333251953,US
Gainesville,medium_airport,GNV,29.6900997162,-82.2717971802,US
Kalispell,medium_airport,FCA,48.31050109863281,-114.25599670410156,US
Gulfport,medium_airport,GPT,30.407301,-89.070099,US
Green Bay,medium_airport,GRB,44.483459,-88.130805,US
Grand Island,medium_airport,GRI,40.967498779296875,-98.30960083007812,US
Killeen,medium_airport,GRK,31.0672,-97.828903,US
Grand Rapids,medium_airport,GRR,42.88079834,-85.52279663,US
Greensboro,medium_airport,GSO,36.097801,-79.937302,US
Greer,medium_airport,GSP,34.895699,-82.218903,US
Great Falls,medium_airport,GTF,47.48199844,-111.3710022,US
Columbus/W Point/Starkville,medium_airport,GTR,33.450298309299995,-88.5914001465,US
Gunnison,small_airport,GUC,38.536346,-106.928306,US
Grayling,small_airport,KGX,62.895187,-160.066289,US
Hibbing,medium_airport,HIB,47.3866,-92.838997,US
Lake Havasu City,medium_airport,HII,34.571098,-114.358002,US
Helena,medium_airport,HLN,46.6068,-111.983002,US
Huron,medium_airport,HON,44.38520050048828,-98.22850036621094,US
Hot Springs,medium_airport,HOT,34.4788,-93.096262,US
Houston,medium_airport,HOU,29.645399,-95.2789,US
White Plains,medium_airport,HPN,41.06700134277344,-73.70760345458984,US
Harlingen,medium_airport,HRL,26.228500366210938,-97.65440368652344,US
Harrison,medium_airport,HRO,36.26150131225586,-93.15470123291016,US
Huntsville,medium_airport,HSV,34.637199,-86.775101,US
Huntington,medium_airport,HTS,38.366699,-82.557999,US
New Haven,medium_airport,HVN,41.26369858,-72.88680267,US
Hyannis,medium_airport,HYA,41.6693,-70.280403,US
Dulles,large_airport,IAD,38.9445,-77.455803,US
Niagara Falls,medium_airport,IAG,43.1073,-78.946198,US
Houston,large_airport,IAH,29.984399795532227,-95.34140014648438,US
Wichita,medium_airport,ICT,37.649899,-97.433098,US
Idaho Falls,medium_airport,IDA,43.514599,-112.070999,US
Wilmington,medium_airport,ILG,39.67869949,-75.60649872,US
Wilmington,medium_airport,ILM,34.270599365234375,-77.90260314941406,US
Indianapolis,large_airport,IND,39.7173,-86.294403,US
International Falls,medium_airport,INL,48.566200256347656,-93.4030990600586,US
Williamsport,medium_airport,IPT,41.241798400878906,-76.92109680175781,US
Kirksville,medium_airport,IRK,40.09349822998047,-92.5448989868164,US
Islip,medium_airport,ISP,40.79520035,-73.10019684,US
Ithaca,medium_airport,ITH,42.49100112915039,-76.4583969116211,US
Mesa,medium_airport,AZA,33.3078,-111.654999,US
Jackson,medium_airport,JAC,43.6072998046875,-110.73799896240234,US
Jackson,medium_airport,JAN,32.311199,-90.075897,US
Jacksonville,large_airport,JAX,30.49410057067871,-81.68789672851562,US
Jonesboro,medium_airport,JBR,35.83169937133789,-90.64640045166016,US
New York,large_airport,JFK,40.639447,-73.779317,US
Joplin,medium_airport,JLN,37.151798,-94.498299,US
Jamestown,medium_airport,JMS,46.92969894,-98.67819977,US
Concord,medium_airport,USA,35.387798,-80.709099,US
Johnstown,medium_airport,JST,40.31610107421875,-78.83390045166016,US
Lansing,medium_airport,LAN,42.77870178222656,-84.58740234375,US
Laramie,medium_airport,LAR,41.31209945678711,-105.67500305175781,US
Las Vegas,large_airport,LAS,36.083361,-115.151817,US
Los Angeles,large_airport,LAX,33.942501,-118.407997,US
Lubbock,medium_airport,LBB,33.663601,-101.822998,US
Latrobe,medium_airport,LBE,40.275902,-79.4048,US
North Platte,medium_airport,LBF,41.12620163,-100.6839981,US
Liberal,medium_airport,LBL,37.0442009,-100.9599991,US
Lake Charles,medium_airport,LCH,30.126100540161133,-93.22329711914062,US
Columbus,medium_airport,LCK,39.813801,-82.927803,US
Lebanon,medium_airport,LEB,43.626098632799994,-72.30419921880001,US
Lexington,medium_airport,LEX,38.036499,-84.605904,US
Lafayette,medium_airport,LFT,30.205299,-91.987602,US
New York,large_airport,LGA,40.777199,-73.872597,US
Long Beach,medium_airport,LGB,33.816523,-118.149891,US
Little Rock,medium_airport,LIT,34.729582,-92.223728,US
Klamath Falls,medium_airport,LMT,42.156101,-121.733002,US
Lincoln,medium_airport,LNK,40.85100173950195,-96.75920104980469,US
Lancaster,medium_airport,LNS,40.121700286865234,-76.29609680175781,US
Laredo,medium_airport,LRD,27.543800354003906,-99.46160125732422,US
La Crosse,medium_airport,LSE,43.879002,-91.256699,US
Lewiston,medium_airport,LWS,46.3745002746582,-117.01499938964844,US
Lewistown,medium_airport,LWT,47.04930114746094,-109.46700286865234,US
Lynchburg,medium_airport,LYH,37.326698,-79.200401,US
Midland,medium_airport,MAF,31.942499,-102.202003,US
Saginaw,medium_airport,MBS,43.532902,-84.079597,US
Kansas City,large_airport,MCI,39.2976,-94.713898,US
Macon,medium_airport,MCN,32.69279861450195,-83.64920043945312,US
Orlando,large_airport,MCO,28.429399490356445,-81.30899810791016,US
Harrisburg,medium_airport,MDT,40.1935005188,-76.7633972168,US
Chicago,large_airport,MDW,41.785999,-87.752403,US
Meridian,medium_airport,MEI,32.3326,-88.7519,US
Memphis,large_airport,MEM,35.04240036010742,-89.97669982910156,US
McAllen,medium_airport,MFE,26.176141,-98.237965,US
Medford,medium_airport,MFR,42.37419891357422,-122.87300109863281,US
Montgomery,medium_airport,MGM,32.300598,-86.393997,US
Morgantown,medium_airport,MGW,39.643305,-79.917598,US
Manhattan,medium_airport,MHK,39.14099884033203,-96.6707992553711,US
Sacramento,medium_airport,MHR,38.553902,-121.297997,US
Manchester,medium_airport,MHT,42.932598,-71.435699,US
Miami,large_airport,MIA,25.79319953918457,-80.29060363769531,US
Milwaukee,large_airport,MKE,42.947200775146484,-87.89659881591797,US
Muskegon,medium_airport,MKG,43.169498,-86.238197,US
Jackson,medium_airport,MKL,35.599899,-88.915604,US
Melbourne,medium_airport,MLB,28.1028,-80.645302,US
Moline,medium_airport,MLI,41.448502,-90.5075,US
Miles City,medium_airport,MLS,46.428001,-105.886002,US
Monroe,medium_airport,MLU,32.510899,-92.037697,US
Mobile,medium_airport,MOB,30.6912,-88.242798,US
Minot,medium_airport,MOT,48.2593994140625,-101.27999877929688,US
Monterey,medium_airport,MRY,36.58700180053711,-121.84300231933594,US
Muscle Shoals,medium_airport,MSL,34.74530029,-87.61019897,US
Madison,medium_airport,MSN,43.1399,-89.337502,US
Missoula,medium_airport,MSO,46.91630173,-114.0910034,US
Minneapolis,large_airport,MSP,44.882,-93.221802,US
Massena,medium_airport,MSS,44.936157,-74.844304,US
New Orleans,large_airport,MSY,29.99340057373047,-90.25800323486328,US
Martha's Vineyard,small_airport,MVY,41.3931007385,-70.6143035889,US
Myrtle Beach,medium_airport,MYR,33.6796989441,-78.9282989502,US
Yuma,medium_airport,YUM,32.656601,-114.606003,US
Richlands,medium_airport,OAJ,34.829201,-77.612099,US
Oakland,large_airport,OAK,37.721298,-122.221001,US
Ogden,medium_airport,OGD,41.195899963379,-112.0120010376,US
Ogdensburg,small_airport,OGS,44.6819,-75.4655,US
Oklahoma City,medium_airport,OKC,35.393101,-97.6007,US
Omaha,medium_airport,OMA,41.3032,-95.894096,US
Ontario,large_airport,ONT,34.055999755859375,-117.60099792480469,US
Chicago,large_airport,ORD,41.9786,-87.9048,US
Norfolk,medium_airport,ORF,36.8946,-76.201202,US
Worcester,medium_airport,ORH,42.2673,-71.875702,US
Eastsound,small_airport,ESD,48.7081985474,-122.910003662,US
North Bend,medium_airport,OTH,43.41709899902344,-124.24600219726562,US
Owensboro,medium_airport,OWB,37.74010086,-87.16680145,US
Chongjin,closed,,41.801300048799995,129.854995728,KP
Samjiyŏn,small_airport,YJS,41.907132,128.409834,KP
Hoemun-ri,medium_airport,RGO,41.428538,129.647555,KP
Everett,medium_airport,PAE,47.9063,-122.281998,US
Paducah,medium_airport,PAH,37.06079864501953,-88.7738037109375,US
Plattsburgh,medium_airport,PBG,44.650901794433594,-73.46810150146484,US
West Palm Beach,large_airport,PBI,26.68320083618164,-80.09559631347656,US
Pendleton,medium_airport,PDT,45.695099,-118.841003,US
Portland,large_airport,PDX,45.58869934,-122.5979996,US
Punta Gorda,medium_airport,PGD,26.9202,-81.990501,US
Newport News,medium_airport,PHF,37.131901,-76.492996,US
Philadelphia,large_airport,PHL,39.87189865112305,-75.24109649658203,US
Phoenix,large_airport,PHX,33.435302,-112.005905,US
Peoria,medium_airport,PIA,40.6642,-89.693298,US
Moselle,medium_airport,PIB,31.4671,-89.337097,US
Pinellas Park,medium_airport,PIE,27.9102,-82.687401,US
Pocatello,medium_airport,PIH,42.9098014831543,-112.59600067138672,US
Pierre,medium_airport,PIR,44.38270187,-100.2860031,US
Pittsburgh,large_airport,PIT,40.49150085,-80.23290253,US
Parkersburg,medium_airport,PKB,39.34510040283203,-81.43920135498047,US
Pellston,medium_airport,PLN,45.57089996,-84.79669952,US
Philadelphia,medium_airport,PNE,40.081902,-75.010597,US
Pensacola,medium_airport,PNS,30.4734,-87.1866,US
Presque Isle,medium_airport,PQI,46.688999,-68.0448,US
Prescott,medium_airport,PRC,34.654499,-112.419998,US
Pasco,medium_airport,PSC,46.26470184326172,-119.11900329589844,US
Portsmouth,medium_airport,PSM,43.0778999329,-70.8233032227,US
Palm Springs,medium_airport,PSP,33.8297,-116.507004,US
Pueblo,medium_airport,PUB,38.289101,-104.497002,US
Pullman/Moscow,medium_airport,PUW,46.7439,-117.110001,US
Providence,large_airport,PVD,41.725038,-71.425668,US
Provo,medium_airport,PVU,40.2192,-111.723,US
Portland,large_airport,PWM,43.646198,-70.309303,US
Rapid City,medium_airport,RAP,44.0452995300293,-103.05699920654297,US
Redding,medium_airport,RDD,40.50899887,-122.2929993,US
Reading,medium_airport,RDG,40.378502,-75.965202,US
Redmond,medium_airport,RDM,44.2541008,-121.1500015,US
Raleigh/Durham,large_airport,RDU,35.877601623535156,-78.7874984741211,US
Chicago/Rockford,medium_airport,RFD,42.1954,-89.097198,US
Rhinelander,medium_airport,RHI,45.63119888305664,-89.46749877929688,US
Richmond,large_airport,RIC,37.50519943237305,-77.3197021484375,US
Rock Springs,medium_airport,RKS,41.5942,-109.065001,US
Reno,large_airport,RNO,39.49909973144531,-119.76799774169922,US
Roanoke,medium_airport,ROA,37.3255,-79.975403,US
Rochester,medium_airport,ROC,43.1189,-77.672401,US
Roswell,medium_airport,ROW,33.301601,-104.530998,US
Rochester,medium_airport,RST,43.908298,-92.5,US
Fort Myers,large_airport,RSW,26.53619956970215,-81.75520324707031,US
Rutland,medium_airport,RUT,43.5294,-72.9496,US
San Diego,large_airport,SAN,32.7336006165,-117.190002441,US
San Antonio,large_airport,SAT,29.533701,-98.469803,US
Savannah,large_airport,SAV,32.12760162,-81.20210266,US
Gwinn,medium_airport,MQT,46.3536,-87.395401,US
Santa Barbara,medium_airport,SBA,34.42620087,-119.8399963,US
San Bernardino,medium_airport,SBD,34.095402,-117.235001,US
South Bend,medium_airport,SBN,41.708698,-86.317299,US
San Luis Obispo,medium_airport,SBP,35.236801147499996,-120.641998291,US
Salisbury,medium_airport,SBY,38.34049987792969,-75.51029968261719,US
Louisville,large_airport,SDF,38.1744,-85.736,US
Seattle,large_airport,SEA,47.449162,-122.311134,US
Orlando,large_airport,SFB,28.777599334716797,-81.23750305175781,US
San Francisco,large_airport,SFO,37.61899948120117,-122.375,US
Springfield,medium_airport,SGF,37.245701,-93.388603,US
St Augustine,medium_airport,UST,29.9592,-81.339798,US
St George,medium_airport,SGU,37.036389,-113.510306,US
Weyers Cave,medium_airport,SHD,38.263802,-78.8964,US
Sheridan,medium_airport,SHR,44.76919937133789,-106.9800033569336,US
Shreveport,medium_airport,SHV,32.446602,-93.8256,US
San Jose,large_airport,SJC,37.362452,-121.929188,US
San Angelo,medium_airport,SJT,31.35770034790039,-100.49600219726562,US
Salt Lake City,large_airport,SLC,40.785749,-111.979746,US
Saranac Lake,medium_airport,SLK,44.38691,-74.204629,US
Salina,medium_airport,SLN,38.79100036621094,-97.6521987915039,US
Sacramento,large_airport,SMF,38.69540023803711,-121.59100341796875,US
Santa Maria,medium_airport,SMX,34.898899,-120.457001,US
Santa Ana,large_airport,SNA,33.675701,-117.867996,US
Springfield,medium_airport,SPI,39.844101,-89.677902,US
Wichita Falls,medium_airport,SPS,33.9888,-98.491898,US
Sarasota/Bradenton,medium_airport,SRQ,27.395399,-82.554398,US
Saint Cloud,medium_airport,STC,45.5466,-94.059898,US
St Louis,large_airport,STL,38.748697,-90.370003,US
Santa Rosa,medium_airport,STS,38.50899887,-122.8130035,US
Hailey,medium_airport,SUN,43.50439835,-114.2959976,US
Sioux City,medium_airport,SUX,42.397605,-96.382237,US
Silver City,small_airport,SVC,32.632293,-108.154263,US
Newburgh,medium_airport,SWF,41.504101,-74.104797,US
Syracuse,large_airport,SYR,43.11119842529297,-76.1063003540039,US
Fort Leonard Wood,medium_airport,TBN,37.74160004,-92.14070129,US
Tallahassee,medium_airport,TLH,30.3965,-84.350304,US
Toledo,medium_airport,TOL,41.5868,-83.8078,US
Tampa,large_airport,TPA,27.975500106811523,-82.533203125,US
Blountville,medium_airport,TRI,36.475201,-82.407401,US
Trenton,medium_airport,TTN,40.27669906616211,-74.8134994506836,US
Tulsa,large_airport,TUL,36.19839859008789,-95.88809967041016,US
Tupelo,medium_airport,TUP,34.26810073852539,-88.7698974609375,US
Tucson,medium_airport,TUS,32.115004,-110.938053,US
Traverse City,medium_airport,TVC,44.74140167236328,-85.58219909667969,US
Twin Falls,medium_airport,TWF,42.4818,-114.487999,US
Texarkana,medium_airport,TXK,33.453701,-93.990997,US
Tyler,medium_airport,TYR,32.35409927368164,-95.40239715576172,US
Alcoa,medium_airport,TYS,35.811001,-83.994003,US
Quincy,medium_airport,UIN,39.94269943,-91.19460297,US
State College,medium_airport,SCE,40.849374,-77.84852,US
Victoria,medium_airport,VCT,28.85260009765625,-96.91850280761719,US
Valdosta,medium_airport,VLD,30.782499313354492,-83.27670288085938,US
Valparaiso,medium_airport,VPS,30.4832,-86.525398,US
West Point,seaplane_base,KWP,57.770099639899996,-153.548995972,US
Westerly,small_airport,WST,41.3496017456,-71.8033981323,US
Kiwayu,medium_airport,KWY,-1.9605599641799927,41.29750061035156,KE
Fayetteville/Springdale/Rogers,medium_airport,XNA,36.281898,-94.306801,US
Yakima,medium_airport,YKM,46.56819916,-120.5439987,US
Zachar Bay,seaplane_base,KZB,57.553001,-153.746052,US
Ton Phueng,medium_airport,,20.324,100.165,LA
Abbeville,heliport,,29.974361,-92.108433,US
Tirana,large_airport,TIA,41.4146995544,19.7206001282,AL
Burgas,large_airport,BOJ,42.56959915161133,27.515199661254883,BG
Sydney,seaplane_base,LBH,-33.5871,151.3234,AU
Plovdiv,medium_airport,PDV,42.067799,24.8508,BG
Sofia,large_airport,SOF,42.696693420410156,23.411436080932617,BG
Varna,large_airport,VAR,43.232101,27.8251,BG
Nicosia,medium_airport,ECN,35.154701232910156,33.49610137939453,CY
Larnaca,large_airport,LCA,34.875099,33.624901,CY
Paphos,medium_airport,PFO,34.717999,32.485699,CY
Dubrovnik,medium_airport,DBV,42.5614013671875,18.268199920654297,HR
Osijek,medium_airport,OSI,45.4627,18.8102,HR
Pula,medium_airport,PUY,44.89350128173828,13.922200202941895,HR
Rijeka,medium_airport,RJK,45.21689987182617,14.570300102233887,HR
Bol,medium_airport,BWK,43.285702,16.679701,HR
Split,medium_airport,SPU,43.53889846801758,16.29800033569336,HR
Zagreb,large_airport,ZAG,45.7429008484,16.0687999725,HR
Zemunik (Zadar),medium_airport,ZAD,44.108299,15.3467,HR
Alicante,large_airport,ALC,38.2822,-0.558156,ES
Almería,medium_airport,LEI,36.843899,-2.3701,ES
Ranón,medium_airport,OVD,43.563599,-6.03462,ES
Bilbao,medium_airport,BIO,43.301102,-2.91061,ES
Burgos,medium_airport,RGS,42.357601,-3.62076,ES
Barcelona,large_airport,BCN,41.2971,2.07846,ES
Badajoz,medium_airport,BJZ,38.8913,-6.82133,ES
Castellón de la Plana,medium_airport,CDT,40.213889,0.073333,ES
Culleredo,medium_airport,LCG,43.302101,-8.37726,ES
Lleida,medium_airport,ILD,41.728185,0.535023,ES
Girona,medium_airport,GRO,41.904639,2.761774,ES
Granada,medium_airport,GRX,37.188702,-3.77736,ES
Ibiza (Eivissa),large_airport,IBZ,38.872898,1.37312,ES
Jerez de la Frontera,medium_airport,XRY,36.744598,-6.06011,ES
León,medium_airport,LEN,42.589001,-5.65556,ES
Madrid,large_airport,MAD,40.471926,-3.56264,ES
Málaga,large_airport,AGP,36.6749,-4.49911,ES
Mahón (Maó),medium_airport,MAH,39.862598,4.21865,ES
Corvera,medium_airport,RMU,37.803,-1.125,ES
Palma de Mallorca,large_airport,PMI,39.551701,2.73881,ES
Pamplona,medium_airport,PNA,42.77,-1.64633,ES
Reus,medium_airport,REU,41.1474,1.16717,ES
Salamanca,medium_airport,SLM,40.952099,-5.50199,ES
Hondarribia,medium_airport,EAS,43.356499,-1.79061,ES
Santiago de Compostela,large_airport,SCQ,42.896301,-8.41514,ES
La Seu d'Urgell Pyrenees and Andorra,small_airport,LEU,42.3386,1.40917,ES
Villamartin,small_airport,,36.871793,-5.648775,ES
Valencia,medium_airport,VLC,39.4893,-0.481625,ES
Valladolid,medium_airport,VLL,41.7061,-4.85194,ES
Alava,medium_airport,VIT,42.882801,-2.72447,ES
Vigo,medium_airport,VGO,42.2318,-8.62677,ES
Santander,medium_airport,SDR,43.427101,-3.82001,ES
Zaragoza,medium_airport,ZAZ,41.666199,-1.04155,ES
Sevilla,medium_airport,SVQ,37.417999,-5.89311,ES
Agen/La Garenne,medium_airport,AGF,44.17470169067383,0.5905560255050659,FR
Bordeaux/Mérignac,large_airport,BOD,44.8283,-0.715556,FR
Bergerac/Roumanière,medium_airport,EGC,44.82529830932617,0.5186110138893127,FR
La Rochelle/Île de Ré,medium_airport,LRH,46.17919921875,-1.1952799558639526,FR
Poitiers/Biard,medium_airport,PIS,46.58769989013672,0.30666598677635193,FR
Limoges/Bellegarde,medium_airport,LIG,45.86280059814453,1.1794400215148926,FR
Toulouse/Blagnac,large_airport,TLS,43.629101,1.36382,FR
Pau/Pyrénées (Uzein),medium_airport,PUF,43.380001068115234,-0.41861099004745483,FR
Tarbes/Lourdes/Pyrénées,medium_airport,LDE,43.1786994934082,-0.006438999902456999,FR
Biarritz/Anglet/Bayonne,medium_airport,BIQ,43.4683333,-1.5311111,FR
Castres/Mazamet,medium_airport,DCM,43.55630111694336,2.289180040359497,FR
Rodez/Marcillac,medium_airport,RDZ,44.407901763916016,2.4826700687408447,FR
Île d'Yeu,medium_airport,IDY,46.71860122680664,-2.3911099433898926,FR
Dole/Tavaux,medium_airport,DLE,47.042686,5.435063,FR
Le Puy/Loudes,medium_airport,LPY,45.0807,3.76289,FR
Metz / Nancy,medium_airport,ETZ,48.9821014404,6.25131988525,FR
TFFR,medium_airport,ANE,47.560299,-0.312222,FR
Bastia/Poretta,medium_airport,BIA,42.55270004272461,9.48373031616211,FR
Calvi/Sainte-Catherine,medium_airport,CLY,42.5244444,8.7930556,FR
Figari Sud-Corse,medium_airport,FSC,41.500599,9.09778,FR
Ajaccio/Napoléon Bonaparte,medium_airport,AJA,41.92359924316406,8.8029203414917,FR
Chambéry/Aix-les-Bains,medium_airport,CMF,45.638099670410156,5.880229949951172,FR
Clermont-Ferrand/Auvergne,medium_airport,CFE,45.7867012024,3.1691699028,FR
Lyon,large_airport,LYS,45.725556,5.081111,FR
Annecy/Meythet,medium_airport,NCY,45.9308333,6.1063889,FR
Saint-Étienne-de-Saint-Geoirs,medium_airport,GNB,45.3629,5.32937,FR
Aurillac,medium_airport,AUR,44.89139938354492,2.4219400882720947,FR
Cannes,medium_airport,CEQ,43.542,6.95348,FR
Saint-Étienne/Bouthéon,medium_airport,EBU,45.54059982299805,4.296390056610107,FR
Carcassonne/Salvaza,medium_airport,CCF,43.215999603271484,2.3063199520111084,FR
Marseille,large_airport,MRS,43.439271922,5.22142410278,FR
Nice,large_airport,NCE,43.658401,7.21587,FR
Perpignan/Rivesaltes,medium_airport,PGF,42.74039840698242,2.8706700801849365,FR
Montpellier/Méditerranée,medium_airport,MPL,43.57619857788086,3.96301007270813,FR
Béziers/Vias,medium_airport,BZR,43.32350158691406,3.3538999557495117,FR
Avignon/Caumont,medium_airport,AVN,43.90729904174805,4.901830196380615,FR
Beauvais,medium_airport,BVA,49.454399,2.11278,FR
Le Havre/Octeville,medium_airport,LEH,49.53390121459961,0.08805599808692932,FR
Vatry,medium_airport,XCR,48.773333,4.206111,FR
Rouen/Vallée de Seine,medium_airport,URO,49.38420104980469,1.1748000383377075,FR
Tours/Val de Loire (Loire Valley),medium_airport,TUF,47.4322013855,0.727605998516,FR
Paris,large_airport,CDG,49.012798,2.55,FR
Paris,large_airport,ORY,48.7233333,2.3794444,FR
Lille/Lesquin,medium_airport,LIL,50.563332,3.086886,FR
Brest/Guipavas,medium_airport,BES,48.447898864746094,-4.418540000915527,FR
Cherbourg/Maupertus,medium_airport,CER,49.65010070800781,-1.4702800512313843,FR
Dinard/Pleurtuit/Saint-Malo,medium_airport,DNR,48.58769989013672,-2.0799601078033447,FR
Deauville,medium_airport,DOL,49.365299,0.154306,FR
Lorient/Lann/Bihoué,medium_airport,LRT,47.76060104370117,-3.440000057220459,FR
Caen/Carpiquet,medium_airport,CFR,49.173302,-0.45,FR
Rennes/Saint-Jacques,medium_airport,RNS,48.0695,-1.73479,FR
Quimper/Pluguffan,medium_airport,UIP,47.974998474121094,-4.167789936065674,FR
Nantes,medium_airport,NTE,47.153198242200006,-1.61073005199,FR
Bâle/Mulhouse,large_airport,BSL,47.59,7.529167,FR
Dijon/Longvic,medium_airport,DIJ,47.268902,5.09,FR
Brive la Gaillarde,medium_airport,BVE,45.039722,1.485556,FR
Strasbourg,medium_airport,SXB,48.538299560546875,7.628230094909668,FR
Toulon/Hyères/Le Palyvestre,medium_airport,TLN,43.0973014832,6.14602994919,FR
Rize,medium_airport,RZV,41.179625,40.850796,TR
Nîmes/Garons,medium_airport,FNI,43.75740051269531,4.4163498878479,FR
La Môle,small_airport,LTT,43.205399,6.482,FR
Miquelon,medium_airport,MQC,47.095501,-56.380299,PM
Saint-Pierre,medium_airport,FSP,46.762901306152344,-56.173099517822266,PM
Alexandroupolis,medium_airport,AXD,40.8559,25.956301,GR
Athens,large_airport,ATH,37.936401,23.9445,GR
Nea Anchialos,medium_airport,VOL,39.219601,22.7943,GR
Chios Island,medium_airport,JKH,38.34320068359375,26.140600204467773,GR
Ikaria Island,small_airport,JIK,37.6827011108,26.3470993042,GR
Ioannina,medium_airport,IOA,39.6963996887207,20.822500228881836,GR
Heraklion,large_airport,HER,35.3396987915,25.180299758900002,GR
Argos Orestiko,small_airport,KSO,40.446301,21.2822,GR
Kithira Island,small_airport,KIT,36.2742996216,23.0170001984,GR
Kefallinia Island,medium_airport,EFL,38.12009811401367,20.500499725341797,GR
