municipality,type,iata_code,latitude_deg,longitude_deg,iso_country
Aleknagik,medium_airport,WKK,59.2826004028,-158.617996216,US
Khost,medium_airport,KHT,33.284605,69.80734,AF
Honiara,large_airport,HIR,-9.428,160.054993,SB
Munda,medium_airport,MUA,-8.32797,157.263,SB
Ngawa (Hongyuan),medium_airport,AHJ,32.53154,102.35224,CN
Yaren District,medium_airport,INU,-0.547458,166.919006,NR
Zucchelli Station,medium_airport,,-74.739373,164.03539,AQ
Concordia Station,medium_airport,,-75.103278,123.35825,AQ
Vostok Station,medium_airport,,-78.466139,106.84825,AQ
Bayanhot,medium_airport,AXF,38.74831,105.58858,CN
Buka Island,medium_airport,BUA,-5.4223198890686035,154.67300415039062,PG
Kundiawa,medium_airport,CMU,-6.024290084838867,144.9709930419922,PG
Daru,medium_airport,DAU,-9.08675956726,143.207992554,PG
Goronka,medium_airport,GKA,-6.081689834590001,145.391998291,PG
Gurney,medium_airport,GUR,-10.3114995956,150.333999634,PG
Popondetta,medium_airport,PNP,-8.80453968048,148.309005737,PG
Kimbe,medium_airport,HKN,-5.463846,150.407327,PG
Kerema,medium_airport,KMA,-7.96361017227,145.770996094,PG
Kavieng,medium_airport,KVG,-2.57940006256,150.807998657,PG
Madang,medium_airport,MAG,-5.20707988739,145.789001465,PG
Mount Hagen,medium_airport,HGU,-5.828212,144.299412,PG
Mendi,medium_airport,MDU,-6.14774,143.656998,PG
Manus Island,medium_airport,MAS,-2.06189,147.423996,PG
Lae,medium_airport,LAE,-6.569803,146.725977,PG
Port Moresby,large_airport,POM,-9.443380355834961,147.22000122070312,PG
Kokopo,medium_airport,RAB,-4.34046,152.380005,PG
Vanimo,medium_airport,VAI,-2.6926,141.3028,PG
Wapenamanda,medium_airport,WBM,-5.635293,143.892231,PG
Wewak,medium_airport,WWK,-3.58383011818,143.669006348,PG
Baku,medium_airport,ZXT,40.4955422161,49.9768066406,AZ
Fuzuli,medium_airport,FZL,39.594578,47.196128,AZ
Sitalchay,medium_airport,,40.807313,49.431481,AZ
Qizilagach,medium_airport,,39.006162,48.806312,AZ
Benguera Island,medium_airport,BCW,-21.853300094604492,35.43830108642578,MZ
Yambol,medium_airport,JAM,42.4548988342,26.3521995544,BG
Aasiaat,medium_airport,JEG,68.721802,-52.784698,GL
Narsarsuaq,medium_airport,UAK,61.1605,-45.425999,GL
Nuuk,medium_airport,GOH,64.193022,-51.676512,GL
Kulusuk,medium_airport,KUS,65.573601,-37.1236,GL
Kangerlussuaq,medium_airport,SFJ,67.010446,-50.715294,GL
Sisimiut,medium_airport,JHS,66.951302,-53.729301,GL
Pituffik,medium_airport,THU,76.531197,-68.703201,GL
Akureyri,medium_airport,AEY,65.66000366210938,-18.07270050048828,IS
Egilsstaðir,medium_airport,EGS,65.2833023071289,-14.401399612426758,IS
Höfn,medium_airport,HFN,64.295601,-15.2272,IS
Húsavík,medium_airport,HZK,65.952301,-17.426001,IS
Ísafjörður,medium_airport,IFJ,66.05809783935547,-23.135299682617188,IS
Reykjavík,large_airport,KEF,63.985001,-22.6056,IS
Reykjavik,medium_airport,RKV,64.1299972534,-21.9405994415,IS
Siglufjörður,medium_airport,SIJ,66.137847,-18.908157,IS
Vestmannaeyjar,medium_airport,VEY,63.42430114746094,-20.278900146484375,IS
Prishtina,medium_airport,PRN,42.5728,21.035801,XK
Vitória da Conquista,medium_airport,VDC,-14.907885,-40.914804,BR
Betong,medium_airport,BTZ,5.79,101.15,TH
Orsha,medium_airport,TXC,54.439999,30.2967,BY
Kalinovichi,medium_airport,,52.27830123901367,29.360000610351562,BY
Byaroza,medium_airport,,52.5569992065,24.884000778199997,BY
Big Creek,medium_airport,BGK,16.519369,-88.407913,BZ
Caye Caulker,medium_airport,CUK,17.735015,-88.032862,BZ
Caye Chapel,medium_airport,CYC,17.683792,-88.044985,BZ
Corozal,medium_airport,CZH,18.382200241088867,-88.41190338134766,BZ
Dangriga,medium_airport,DGA,16.98251,-88.230988,BZ
Placencia,medium_airport,PLJ,16.536956787109375,-88.36151123046875,BZ
Punta Gorda,medium_airport,PND,16.102399826,-88.80829620360001,BZ
Sartaneja,medium_airport,SJX,18.35610008239746,-88.13079833984375,BZ
San Pedro,medium_airport,SPR,17.9139,-87.9711,BZ
Belize City,medium_airport,TZA,17.517239,-88.195775,BZ
Bazaruto Island,medium_airport,BZB,-21.5411,35.4729,MZ
Bamfield,medium_airport,,48.8206,-125.1193,CA
Anahim Lake,medium_airport,YAA,52.451501,-125.303776,CA
Cache Creek,medium_airport,YZA,50.775258,-121.321314,CA
Bella Bella,medium_airport,ZEL,52.185001,-128.156994,CA
Boma,medium_airport,,-5.80543,12.99582,CD
"Wafangdian, Dalian",medium_airport,,39.669998,121.765999,CN
"Pulandian, Dalian",medium_airport,,39.450901,122.017998,CN
Beijing,medium_airport,,40.149166107177734,116.3213882446289,CN
Beijing,medium_airport,,39.81111145019531,116.70833587646484,CN
Chuxiong (Yuanmou),medium_airport,YUA,25.737499,101.882004,CN
,medium_airport,,41.260799407958984,116.61799621582031,CN
Hohhot,medium_airport,,40.737015,111.229749,CN
Shuozhou,medium_airport,,39.717499,113.142998,CN
Beijing,medium_airport,,39.7578010559082,116.1259994506836,CN
Jinghai,medium_airport,,38.781101,117.068001,CN
Lüliang,medium_airport,,37.407799,111.966003,CN
,medium_airport,,39.37329864501953,117.09500122070312,CN
Yongning,medium_airport,,40.50310134887695,116.10800170898438,CN
Zhangjiakou,medium_airport,ZQZ,40.738602,114.93,CN
Tangshan,medium_airport,,40.102501,117.887001,CN
Chengdu (Qingyang),medium_airport,,30.705299,103.949997,CN
Baoshan (Longyang),medium_airport,BSD,25.053301,99.168297,CN
Chongqing,medium_airport,,29.4953,106.359001,CN
Lincang,medium_airport,LNJ,23.7381,100.025002,CN
Qujing (Luliang),medium_airport,,24.988192,103.642833,CN
Honghe,medium_airport,,23.3953,103.334,CN
Chengdu (Qionglai),medium_airport,,30.49099,103.466139,CN
Xigazê (Samzhubzê),medium_airport,RKZ,29.3519,89.311401,CN
,medium_airport,,23.715599060058594,103.8270034790039,CN
Dali (Xiangyun),medium_airport,,25.445299,100.735001,CN
Panzhihua (Renhe),medium_airport,PZI,26.54,101.79852,CN
Ningming,medium_airport,,22.120481,107.125046,CN
Changsha (Tianxin),medium_airport,,28.068522,112.957306,CN
Yichang (Dangyang),medium_airport,,30.798599,111.809998,CN
Ledong (Da'anzhen),medium_airport,,18.6922,109.161003,CN
Foshan (Nanhai),medium_airport,FUO,23.0833,113.07,CN
Guiping (Guigang),medium_airport,,23.330799,110.009003,CN
Xinyang,medium_airport,XAI,32.540819,114.079141,CN
Huizhou (Pingtan),medium_airport,HUZ,23.049999,114.599998,CN
Lingao (Jialai),medium_airport,,19.697201,109.725998,CN
,medium_airport,,26.587200164794922,112.89199829101562,CN
Lingshui (Huayuan),medium_airport,,18.4944,109.987999,CN
Shangqiu,medium_airport,,34.449507,115.459261,CN
Zhengzhou,medium_airport,,34.86125,113.729631,CN
Shaoguan,medium_airport,HSC,24.9786,113.420998,CN
Zhanjiang (Suixi),medium_airport,,21.3958,110.199997,CN
Ji'an,medium_airport,JGS,26.856899,114.737,CN
Baise (Tianyang),medium_airport,AEB,23.7206,106.959999,CN
"Xintai, Tai'an",medium_airport,,36.000428,117.625833,CN
Xiaogan (Xiaonan),medium_airport,,30.95359,113.911774,CN
Lianyungang,medium_airport,LYG,34.41406,119.17899,CN
Cangzhou,medium_airport,,38.403025,116.930924,CN
Dongying,medium_airport,DOY,37.5085983276,118.788002014,CN
"Jiaozhou, Qingdao",medium_airport,,36.331163,120.025538,CN
Hengshui,medium_airport,,37.491153,116.116726,CN
Kaifeng,medium_airport,,34.75389862060547,114.33899688720703,CN
Yantai,medium_airport,,36.9636,120.591003,CN
Xuchang (Pingdingshan),medium_airport,,33.685434,112.89053,CN
"Xingcheng, Huludao",medium_airport,XEN,40.580328,120.700374,CN
Xuzhou,medium_airport,,34.229285,117.245665,CN
Weifang,medium_airport,,36.027468,119.43778,CN
Altay,medium_airport,AAT,47.749886,88.085808,CN
Baoji (Fengxiang),medium_airport,,34.53125,107.470679,CN
Hainan (Gonghe),medium_airport,,36.3367,100.480003,CN
Huludao,medium_airport,,40.49979,120.659295,CN
Lanzhou (Yuzhong),medium_airport,,35.917801,104.218002,CN
Dingxi (Lintao),medium_airport,,35.3083,103.835999,CN
Jiuquan (Suzhou),medium_airport,,39.554699,98.884201,CN
Tianshui (Maiji),medium_airport,THQ,34.559399,105.860001,CN
Ürümqi,medium_airport,,43.466593,87.531177,CN
"Hoxud, Bayingolin",medium_airport,,42.1814,87.188103,CN
Xianyang (Wugong),medium_airport,,34.275907,108.2658,CN
Ashilixiang,medium_airport,,43.951175,87.079232,CN
Wuwei,medium_airport,,37.9883,102.567001,CN
Xi'an (Huyi),medium_airport,,34.153059,108.599739,CN
Ganzhou,medium_airport,,25.5483,114.619003,CN
"Yizhou, Hami",medium_airport,,43.077202,92.808098,CN
Xi'an (Yanliang),medium_airport,,34.642248,109.241867,CN
Zhoushan,medium_airport,,30.287581,122.144401,CN
Hefei,medium_airport,,31.909401,117.658997,CN
Fuzhou,medium_airport,,26.0044,119.311996,CN
,medium_airport,,25.026100158691406,118.80699920654297,CN
Hangzhou,medium_airport,,30.3353,120.240997,CN
"Xiuzhou, Hangzhou",medium_airport,,30.705535,120.679779,CN
Fuzhou (Fuqing),medium_airport,,25.5728,119.459999,CN
Nanchang,medium_airport,,28.421205,115.923375,CN
Ningbo,medium_airport,,29.9228,121.573997,CN
Shanghai (Baoshan),medium_airport,,31.324438,121.409508,CN
Yichun,medium_airport,,28.023283,115.549649,CN
Changchun,medium_airport,,43.9053,125.197998,CN
Beijing,medium_airport,NAY,39.48595,116.37236,CN
"Zhenxing, Dandong",medium_airport,DDG,40.0247,124.286003,CN
Jiuquan (Jinta),medium_airport,,40.401402,99.789398,CN
"Xihe, Fuxin",medium_airport,,42.078899,121.662003,CN
Siping,medium_airport,,43.526293,124.78466,CN
"Qinghe, Tieling",medium_airport,,42.525799,123.982002,CN
Harbin,medium_airport,,45.259457,126.893536,CN
Chengde,medium_airport,,40.900409,118.677878,CN
"Huanggu, Shenyang",medium_airport,,41.8708,123.439003,CN
"Yuhong, Shenyang",medium_airport,,41.822498,123.299004,CN
Siping,medium_airport,,43.156898,124.292,CN
Huludao,medium_airport,,40.298992,120.36152,CN
"Lüshunkou, Dalian",medium_airport,,38.912201,121.238998,CN
Xigazê (Dingri),medium_airport,DDR,28.604567,86.798,CN
Suzhou,medium_airport,,31.215334,120.789328,CN
Changzhou,medium_airport,,31.53904,119.502554,CN
Anji,medium_airport,,30.797725,119.590287,CN
Jiuzhou,medium_airport,,26.998259,107.759571,CN
Wuhan (Xinzhou),medium_airport,,30.673944,114.63089,CN
Wuhan,medium_airport,,30.087612,114.31366,CN
Zhanjiang,medium_airport,ZHA,21.481667,110.590278,CN
Shaoyang (Shaodong),medium_airport,,27.2235,111.6741,CN
"Jinzhou, Dalian",medium_airport,,39.289671,121.762195,CN
Nantong,medium_airport,NTG,32.070801,120.975998,CN
,medium_airport,,43.7603,-79.875,CA
Geçitkale,medium_airport,GEC,35.235947,33.724358,CY
Cat Lake,medium_airport,YAC,51.72719955444336,-91.82440185546875,CA
Fort Frances,medium_airport,YAG,48.655749,-93.44349,CA
La Grande-4,medium_airport,YAH,53.754699707,-73.6753005981,CA
Alert Bay,medium_airport,YAL,50.582199,-126.916,CA
Sault Ste Marie,medium_airport,YAM,46.485001,-84.509399,CA
Kasabonika,medium_airport,XKS,53.52470016479492,-88.6427993774414,CA
Kangirsuk,medium_airport,YKG,60.027198791503906,-69.99919891357422,CA
Attawapiskat,medium_airport,YAT,52.9275016784668,-82.43190002441406,CA
Saint Andrews,medium_airport,,50.0564,-97.032501,CA
Lac Du Bonnet,medium_airport,,50.294399,-96.010002,CA
St. Anthony,medium_airport,YAY,51.391909,-56.08321,CA
Tofino,medium_airport,YAZ,49.079833,-125.775583,CA
Kugaaruk,medium_airport,YBB,68.534401,-89.808098,CA
Baie-Comeau,medium_airport,YBC,49.1325,-68.204399,CA
Bella Coola,medium_airport,QBC,52.387501,-126.596001,CA
Uranium City,medium_airport,YBE,59.5614013671875,-108.48100280761719,CA
Bonnyville,medium_airport,YBY,54.304199,-110.744003,CA
Bagotville,medium_airport,YBG,48.33060073852539,-70.99639892578125,CA
Baker Lake,medium_airport,YBK,64.29889678960001,-96.077796936,CA
Campbell River,medium_airport,YBL,49.950802,-125.271004,CA
Tadoule Lake,medium_airport,XTL,58.7061,-98.512199,CA
Brandon,medium_airport,YBR,49.91,-99.951897,CA
Brochet,medium_airport,YBT,57.8894,-101.679001,CA
Nipawin,medium_airport,,53.33250045776367,-104.00800323486328,CA
Berens River,medium_airport,YBV,52.358898,-97.018303,CA
Calgary,medium_airport,,51.1031,-114.374001,CA
Blanc-Sablon,medium_airport,YBX,51.4436,-57.185299,CA
Cartwright,medium_airport,YRF,53.682501,-57.042303,CA
Cambridge Bay,medium_airport,YCB,69.1081008911,-105.138000488,CA
Cornwall,medium_airport,YCC,45.092637,-74.567724,CA
Nanaimo,medium_airport,YCD,49.05497,-123.869863,CA
Huron Park,medium_airport,YCE,43.285599,-81.508301,CA
Castlegar,medium_airport,YCG,49.2963981628,-117.632003784,CA
Miramichi,medium_airport,YCH,47.007801,-65.449203,CA
Charlo,medium_airport,YCL,47.990799,-66.330299,CA
Cochrane,medium_airport,YCN,49.10559844970703,-81.01360321044922,CA
Kugluktuk,medium_airport,YCO,67.816704,-115.143997,CA
Blue River,medium_airport,,52.11669921875,-119.28299713134766,CA
Chetwynd,medium_airport,YCQ,55.687198638916016,-121.62699890136719,CA
Cross Lake,medium_airport,YCR,54.610599517822266,-97.76080322265625,CA
Chesterfield Inlet,medium_airport,YCS,63.346900939899996,-90.73110198970001,CA
Clyde River,medium_airport,YCY,70.4860992432,-68.5167007446,CA
Dawson City,medium_airport,YDA,64.04309844970703,-139.1280059814453,CA
Burwash Landing,medium_airport,YDB,61.371101,-139.041,CA
Town of Princeton,medium_airport,,49.4681015015,-120.511001587,CA
Deer Lake,medium_airport,YDF,49.21080017089844,-57.39139938354492,CA
Ross River,medium_airport,XRR,61.9706001282,-132.42300415,CA
Dauphin,medium_airport,YDN,51.100799560546875,-100.052001953125,CA
Dolbeau-St-Félicien,medium_airport,YDO,48.778499603271,-72.375,CA
Nain,medium_airport,YDP,56.550778,-61.682224,CA
Dawson Creek,medium_airport,YDQ,55.7422981262207,-120.18299865722656,CA
Midland,medium_airport,,44.6833000183,-79.9282989502,CA
Edmonton,large_airport,YEG,53.309700012200004,-113.580001831,CA
Arviat,medium_airport,YEK,61.0942001343,-94.07080078119999,CA
Elliot Lake,medium_airport,YEL,46.351398468,-82.5614013672,CA
Sheguiandah,medium_airport,YEM,45.842435,-81.857595,CA
Estevan,medium_airport,YEN,49.2103004456,-102.966003418,CA
Fort Severn,medium_airport,YER,56.01890182495117,-87.67610168457031,CA
Edson,medium_airport,YET,53.578899383499994,-116.464996338,CA
Inuvik,medium_airport,YEV,68.30419921880001,-133.483001709,CA
Amos,medium_airport,YEY,48.563903,-78.249702,CA
Fort Albany,medium_airport,YFA,52.20140075683594,-81.6968994140625,CA
Iqaluit,medium_airport,YFB,63.756402,-68.555801,CA
Fredericton,medium_airport,YFC,45.868900299072266,-66.53720092773438,CA
Forestville,medium_airport,YFE,48.74610137939453,-69.09719848632812,CA
Fort Hope,medium_airport,YFH,51.5619010925293,-87.90779876708984,CA
La Macaza,medium_airport,YTM,46.409401,-74.779999,CA
Flin Flon,medium_airport,YFO,54.6781005859375,-101.68199920654297,CA
Fort Resolution,medium_airport,YFR,61.1808013916,-113.690002441,CA
Fort Simpson,medium_airport,YFS,61.76020050048828,-121.23699951171875,CA
Makkovik,medium_airport,YMN,55.077335,-59.187942,CA
Texada,medium_airport,YGB,49.69419860839844,-124.51799774169922,CA
Goderich,medium_airport,,43.7668991089,-81.7106018066,CA
Golden,medium_airport,,51.299196,-116.982002,CA
Fort Good Hope,medium_airport,YGH,66.24079895019531,-128.6510009765625,CA
Kingston,medium_airport,YGK,44.22529983520508,-76.5969009399414,CA
La Grande Rivière,medium_airport,YGL,53.625301361083984,-77.7042007446289,CA
Gimli,medium_airport,YGM,50.62810134887695,-97.04329681396484,CA
Gods Lake Narrows,medium_airport,YGO,54.55889892578125,-94.49140167236328,CA
Gaspé,medium_airport,YGP,48.7752990723,-64.4785995483,CA
Geraldton,medium_airport,YGQ,49.77830123901367,-86.93939971923828,CA
Les Îles-de-la-Madeleine,medium_airport,YGR,47.425242,-61.778612,CA
Igloolik,medium_airport,YGT,69.3647003174,-81.8161010742,CA
Havre-Saint-Pierre,medium_airport,YGV,50.281898,-63.611401,CA
Kuujjuarapik,medium_airport,YGW,55.281898498535156,-77.76529693603516,CA
Gillam,medium_airport,YGX,56.35749816894531,-94.71060180664062,CA
Grise Fiord,medium_airport,YGZ,76.4261016846,-82.90920257570001,CA
Quaqtaq,medium_airport,YQC,61.0463981628418,-69.6177978515625,CA
Dryden,medium_airport,YHD,49.831699,-92.744202,CA
Hope,medium_airport,YHE,49.368865,-121.49495,CA
Hearst,medium_airport,YHF,49.71419906616211,-83.68609619140625,CA
Nemiscau,medium_airport,YNS,51.69110107421875,-76.1355972290039,CA
Ulukhaktok,medium_airport,YHI,70.76280212402344,-117.80599975585938,CA
Gjoa Haven,medium_airport,YHK,68.635597229,-95.84970092770001,CA
Hamilton,medium_airport,YHM,43.173599243199995,-79.93499755859999,CA
Hornepayne,medium_airport,YHN,49.19309997558594,-84.75890350341797,CA
Hopedale,medium_airport,YHO,55.448757,-60.228124,CA
Chevery,medium_airport,YHR,50.46889877319336,-59.63669967651367,CA
Haines Junction,medium_airport,YHT,60.7892,-137.546005,CA
Montréal,medium_airport,YHU,45.5175018311,-73.4169006348,CA
Hay River,medium_airport,YHY,60.8396987915,-115.782997131,CA
Halifax,large_airport,YHZ,44.8807983398,-63.5085983276,CA
Atikokan,medium_airport,YIB,48.7738990784,-91.6386032104,CA
Digby,medium_airport,YDG,44.5458450365,-65.7854247093,CA
St-Augustin,medium_airport,YIF,51.2117004395,-58.6582984924,CA
Ivujivik,medium_airport,YIK,62.417301177978516,-77.92530059814453,CA
Pond Inlet,medium_airport,YIO,72.6832962036,-77.9666976929,CA
Island Lake,medium_airport,YIV,53.857200622558594,-94.65360260009766,CA
Fort Liard,medium_airport,YJF,60.235801696799996,-123.46900177,CA
St Jean,medium_airport,YJN,45.29439926147461,-73.28109741210938,CA
Stephenville,medium_airport,YJT,48.5442008972168,-58.54999923706055,CA
Kamloops,medium_airport,YKA,50.7022018433,-120.444000244,CA
Aklavik,medium_airport,LAK,68.223297,-135.00599,CA
Kitchener,medium_airport,YKF,43.460800170899994,-80.3786010742,CA
Kangiqsujuaq,medium_airport,YWB,61.5886001587,-71.929397583,CA
Key Lake,medium_airport,YKJ,57.256099700927734,-105.61799621582031,CA
Schefferville,medium_airport,YKL,54.805301666259766,-66.8052978515625,CA
Akulivik,medium_airport,AKV,60.818599700927734,-78.14859771728516,CA
Waskaganish,medium_airport,YKQ,51.47330093383789,-78.75830078125,CA
Kirkland Lake,medium_airport,YKX,48.21030044555664,-79.98139953613281,CA
Kindersley,medium_airport,YKY,51.5175018311,-109.180999756,CA
Toronto,medium_airport,YKZ,43.86220169067383,-79.37000274658203,CA
Aupaluk,medium_airport,YPJ,59.29669952392578,-69.59970092773438,CA
Kimmirut,medium_airport,YLC,62.848253,-69.877853,CA
Chapleau,medium_airport,YLD,47.81999969482422,-83.3467025756836,CA
Lansdowne House,medium_airport,YLH,52.19559860229492,-87.93419647216797,CA
Meadow Lake,medium_airport,YLJ,54.125301361083984,-108.52300262451172,CA
Lutselk'e,medium_airport,YSG,62.418303,-110.681998,CA
Lloydminster,medium_airport,YLL,53.309200286865234,-110.072998046875,CA
Leaf Rapids,medium_airport,YLR,56.513301849365234,-99.98529815673828,CA
Alert,medium_airport,YLT,82.517799,-62.280602,CA
Kangiqsualujjuaq,medium_airport,XGR,58.711399,-65.992798,CA
Kelowna,medium_airport,YLW,49.9561,-119.377998,CA
Mayo,medium_airport,YMA,63.61640167236328,-135.8679962158203,CA
Matane,medium_airport,YME,48.85689926147461,-67.45330047607422,CA
Manitouwadge,medium_airport,YMG,49.083900451660156,-85.86060333251953,CA
Mary's Harbour,medium_airport,YMH,52.302837,-55.847626,CA
Moose Jaw,medium_airport,YMJ,50.330299377441406,-105.55899810791016,CA
Charlevoix,medium_airport,YML,47.59749984741211,-70.2238998413086,CA
Fort McMurray,medium_airport,YMM,56.653301239,-111.222000122,CA
Moosonee,medium_airport,YMO,51.291099548339844,-80.60780334472656,CA
Chibougamau,medium_airport,YMT,49.77190017700195,-74.5280990600586,CA
Umiujaq,medium_airport,YUD,56.53609848022461,-76.51830291748047,CA
Montréal,medium_airport,YMX,45.679501,-74.038696,CA
Natashquan,medium_airport,YNA,50.189998626708984,-61.78919982910156,CA
Wemindji,medium_airport,YNC,53.01060104370117,-78.83110046386719,CA
Gatineau,medium_airport,YND,45.521702,-75.563599,CA
Norway House,medium_airport,YNE,53.95830154418945,-97.84420013427734,CA
Points North Landing,medium_airport,YNL,58.27669906616211,-104.08200073242188,CA
Matagami,medium_airport,YNM,49.76169967651367,-77.80280303955078,CA
Nejanilini Lake,medium_airport,,59.4874992371,-97.78029632570001,CA
Ekati,medium_airport,YOA,64.6988983154,-110.614997864,CA
Old Crow,medium_airport,YOC,67.57060241699219,-139.83900451660156,CA
Cold Lake,medium_airport,YOD,54.404998779296875,-110.27899932861328,CA
Oxford House,medium_airport,YOH,54.93330001831055,-95.27890014648438,CA
High Level,medium_airport,YOJ,58.62139892578125,-117.16500091552734,CA
Oshawa,medium_airport,YOO,43.922798,-78.894997,CA
Rainbow Lake,medium_airport,YOP,58.49140167236328,-119.40799713134766,CA
Owen Sound,medium_airport,YOS,44.5903015137,-80.8375015259,CA
Ottawa,large_airport,YOW,45.322498,-75.669197,CA
Prince Albert,medium_airport,YPA,53.214199066199996,-105.672996521,CA
Paulatuk,medium_airport,YPC,69.3608381154,-124.075469971,CA
Port Hawkesbury,medium_airport,YPS,45.6567001343,-61.3680992126,CA
Peace River,medium_airport,YPE,56.226898,-117.446999,CA
Portage la Prairie,medium_airport,YPG,49.903099,-98.273817,CA
Inukjuak,medium_airport,YPH,58.471900939941406,-78.07689666748047,CA
Pickle Lake,medium_airport,YPL,51.4463996887207,-90.21420288085938,CA
Pikangikum,medium_airport,YPM,51.819698333740234,-93.97329711914062,CA
Port-Menier,medium_airport,YPN,49.83639907836914,-64.2885971069336,CA
Peawanuck,medium_airport,YPO,54.98809814453125,-85.44329833984375,CA
Peterborough,medium_airport,YPQ,44.23,-78.363297,CA
Prince Rupert,medium_airport,YPR,54.286098480199996,-130.445007324,CA
Powell River,medium_airport,YPW,49.83420181274414,-124.5,CA
Puvirnituq,medium_airport,YPX,60.05059814453125,-77.28690338134766,CA
Fort Chipewyan,medium_airport,YPY,58.7672004699707,-111.11699676513672,CA
Burns Lake,medium_airport,YPZ,54.3764,-125.950996,CA
Muskoka,medium_airport,YQA,44.974700927734375,-79.30329895019531,CA
Quebec,large_airport,YQB,46.7911,-71.393303,CA
The Pas,medium_airport,YQD,53.97140121459961,-101.09100341796875,CA
Springbrook,medium_airport,YQF,52.182201,-113.893997,CA
Windsor,medium_airport,YQG,42.27560043334961,-82.95559692382812,CA
Watson Lake,medium_airport,YQH,60.11640167236328,-128.82200622558594,CA
Yarmouth,medium_airport,YQI,43.826900482177734,-66.08809661865234,CA
Kenora,medium_airport,YQK,49.788299560546875,-94.36309814453125,CA
Lethbridge,medium_airport,YQL,49.6302986145,-112.800003052,CA
Moncton,medium_airport,YQM,46.112202,-64.678596,CA
Nakina,medium_airport,YQN,50.18280029296875,-86.69640350341797,CA
Comox,medium_airport,YQQ,49.7108,-124.887001,CA
Regina,medium_airport,YQR,50.43190002441406,-104.66600036621094,CA
St Thomas,medium_airport,YQS,42.77000045776367,-81.11080169677734,CA
Thunder Bay,medium_airport,YQT,48.37189865112305,-89.32389831542969,CA
Grande Prairie,medium_airport,YQU,55.1796989441,-118.885002136,CA
Yorkton,medium_airport,YQV,51.26470184326172,-102.46199798583984,CA
North Battleford,medium_airport,YQW,52.769409,-108.243742,CA
Gander,medium_airport,YQX,48.936258,-54.567719,CA
Sydney,medium_airport,YQY,46.1614,-60.047798,CA
Quesnel,medium_airport,YQZ,53.026100158691406,-122.51000213623047,CA
Gamètì,medium_airport,YRA,64.11609649658203,-117.30999755859375,CA
Resolute Bay,medium_airport,YRB,74.7169036865,-94.9693984985,CA
Rivière-du-Loup,medium_airport,YRI,47.764400482177734,-69.58470153808594,CA
Roberval,medium_airport,YRJ,48.52000045776367,-72.2656021118164,CA
Red Lake,medium_airport,YRL,51.066898345947266,-93.79309844970703,CA
Ottawa,medium_airport,YRO,45.4603004456,-75.64610290530001,CA
Ottawa,medium_airport,,45.3191986084,-76.0222015381,CA
Trois-Rivières,medium_airport,YRQ,46.35279846191406,-72.67939758300781,CA
Red Sucker Lake,medium_airport,YRS,54.167198181152344,-93.55719757080078,CA
Rankin Inlet,medium_airport,YRT,62.8114013672,-92.1157989502,CA
Revelstoke,medium_airport,YRV,50.962245,-118.184258,CA
Sudbury,medium_airport,YSB,46.625,-80.79889678955078,CA
Sherbrooke,medium_airport,YSC,45.438599,-71.691399,CA
Stony Rapids,medium_airport,YSF,59.250301361083984,-105.84100341796875,CA
Saint-Georges,medium_airport,,46.096401,-70.714699,CA
Smiths Falls,medium_airport,YSH,44.945801,-75.940598,CA
Saint John,medium_airport,YSJ,45.31610107421875,-65.89029693603516,CA
Sanikiluaq,medium_airport,YSK,56.5377998352,-79.2466964722,CA
Saint-Léonard,medium_airport,YSL,47.157097,-67.836242,CA
Fort Smith,medium_airport,YSM,60.020302,-111.961998,CA
St Catharines,medium_airport,YCM,43.19169998168945,-79.17169952392578,CA
Marathon,medium_airport,YSP,48.75529861450195,-86.34439849853516,CA
Atlin,medium_airport,,59.576698,-133.669006,CA
St. Theresa Point,medium_airport,YST,53.84560012817383,-94.85189819335938,CA
Slemon Park,medium_airport,YSU,46.440601,-63.833599,CA
Sachs Harbour,medium_airport,YSY,71.9938964844,-125.242996216,CA
Pembroke,medium_airport,YTA,45.86439895629883,-77.25170135498047,CA
Kinngait,medium_airport,YTE,64.230003,-76.526703,CA
Alma,medium_airport,YTF,48.50889968869999,-71.64189910889999,CA
Thompson,medium_airport,YTH,55.80110168457031,-97.86419677734375,CA
Big Trout Lake,medium_airport,YTL,53.81779861450195,-89.89689636230469,CA
Tasiujaq,medium_airport,YTQ,58.66780090332031,-69.95580291748047,CA
Trenton,medium_airport,YTR,44.118900299072266,-77.5280990600586,CA
Timmins,medium_airport,YTS,48.569698333699996,-81.376701355,CA
Toronto,medium_airport,YTZ,43.627499,-79.396202,CA
Tuktoyaktuk,medium_airport,YUB,69.433296,-133.026001,CA
Montréal,large_airport,YUL,45.4706001282,-73.7407989502,CA
Repulse Bay,medium_airport,YUT,66.5214,-86.224701,CA
Sanirajak,medium_airport,YUX,68.7761,-81.2425,CA
Rouyn-Noranda,medium_airport,YUY,48.20610046386719,-78.83560180664062,CA
Bonaventure,medium_airport,YVB,48.071098,-65.460297,CA
La Ronge,medium_airport,YVC,55.151401519800004,-105.262001038,CA
Virden,medium_airport,,49.8783,-100.917999,CA
Vernon,medium_airport,YVE,50.24810028076172,-119.33100128173828,CA
Qikiqtarjuaq,medium_airport,YVM,67.546232,-64.031754,CA
Val-d'Or,medium_airport,YVO,48.0532989502,-77.7827987671,CA
Kuujjuaq,medium_airport,YVP,58.096099853515625,-68.4269027709961,CA
Norman Wells,medium_airport,YVQ,65.28160095214844,-126.7979965209961,CA
Vancouver,large_airport,YVR,49.193901062,-123.183998108,CA
Wiarton,medium_airport,YVV,44.7458,-81.107201,CA
Deer Lake,medium_airport,YVZ,52.655799865722656,-94.0614013671875,CA
Petawawa,medium_airport,YWA,45.95220184326172,-77.31919860839844,CA
Winnipeg,large_airport,YWG,49.909999847399995,-97.2398986816,CA
Déline,medium_airport,YWJ,65.21109771728516,-123.43599700927734,CA
Wabush,medium_airport,YWK,52.92190170288086,-66.8644027709961,CA
Williams Lake,medium_airport,YWL,52.1831016541,-122.054000854,CA
Webequie,medium_airport,YWP,52.9593933975,-87.3748683929,CA
Wrigley,medium_airport,YWY,63.20940017700195,-123.43699645996094,CA
Cranbrook,medium_airport,YXC,49.610801696777,-115.78199768066,CA
Saskatoon,medium_airport,YXE,52.170799255371094,-106.69999694824219,CA
Medicine Hat,medium_airport,YXH,50.018902,-110.721001,CA
Fort St.John,medium_airport,YXJ,56.238098,-120.739998,CA
Rimouski,medium_airport,YXK,48.47809982299805,-68.49690246582031,CA
Sioux Lookout,medium_airport,YXL,50.11389923095703,-91.9052963256836,CA
Whale Cove,medium_airport,YXN,62.24000167849999,-92.59809875490001,CA
Pangnirtung,medium_airport,YXP,66.1449966431,-65.71360015869999,CA
Beaver Creek,medium_airport,YXQ,62.410301208496094,-140.86700439453125,CA
Earlton,medium_airport,YXR,47.697400654599996,-79.8473453522,CA
Prince George,medium_airport,YXS,53.8894004822,-122.679000854,CA
Terrace,medium_airport,YXT,54.468498,-128.576009,CA
London,medium_airport,YXU,43.035599,-81.1539,CA
Abbotsford,large_airport,YXX,49.025299,-122.361,CA
Whitehorse,medium_airport,YXY,60.709599,-135.067001,CA
Wawa,medium_airport,YXZ,47.96670150756836,-84.78669738769531,CA
North Bay,medium_airport,YYB,46.363602,-79.422798,CA
Calgary,large_airport,YYC,51.113899231,-114.019996643,CA
Smithers,medium_airport,YYD,54.82469940185547,-127.18299865722656,CA
Fort Nelson,medium_airport,YYE,58.8363990784,-122.597000122,CA
Penticton,medium_airport,YYF,49.46310043334961,-119.60199737548828,CA
Charlottetown,medium_airport,YYG,46.290000915527344,-63.12110137939453,CA
Taloyoak,medium_airport,YYH,69.5467,-93.576698,CA
Victoria,large_airport,YYJ,48.6469,-123.426003,CA
Lynn Lake,medium_airport,YYL,56.86389923095703,-101.07599639892578,CA
Swift Current,medium_airport,YYN,50.291900634799994,-107.691001892,CA
Churchill,medium_airport,YYQ,58.739200592041016,-94.06500244140625,CA
Goose Bay,medium_airport,YYR,53.3191986084,-60.4258003235,CA
St. John's,large_airport,YYT,47.618598938,-52.7518997192,CA
Kapuskasing,medium_airport,YYU,49.41389846801758,-82.46749877929688,CA
Armstrong,medium_airport,YYW,50.29029846191406,-88.90969848632812,CA
Mont-Joli,medium_airport,YYY,48.60860061645508,-68.20809936523438,CA
Toronto,large_airport,YYZ,43.6772003174,-79.63059997559999,CA
Toronto,medium_airport,,43.7425,-79.465599,CA
Gore Bay,medium_airport,YZE,45.8853,-82.567802,CA
Yellowknife,medium_airport,YZF,62.462799,-114.440002,CA
Salluit,medium_airport,YZG,62.17940139770508,-75.66719818115234,CA
Slave Lake,medium_airport,YZH,55.2930984497,-114.777000427,CA
Sandspit,medium_airport,YZP,53.25429916379999,-131.813995361,CA
Sarnia,medium_airport,YZR,42.9994010925293,-82.30889892578125,CA
Coral Harbour,medium_airport,YZS,64.1932983398,-83.3593978882,CA
Port Hardy,medium_airport,YZT,50.680599212646484,-127.36699676513672,CA
Whitecourt,medium_airport,YZU,54.14390182495117,-115.78700256347656,CA
Sept-Îles,medium_airport,YZV,50.22330093383789,-66.2656021118164,CA
Teslin,medium_airport,YZW,60.17279815673828,-132.7429962158203,CA
Greenwood,medium_airport,YZX,44.98440170288086,-64.91690063476562,CA
Mackenzie,medium_airport,,55.304402,-123.132004,CA
York Landing,medium_airport,ZAC,56.08940124511719,-96.08920288085938,CA
Salmon Arm,medium_airport,YSN,50.682802,-119.228996,CA
Delta,medium_airport,YDT,49.0742,-123.012001,CA
Ilford,medium_airport,ILF,56.05163,-95.620523,CA
South Tetagouche,medium_airport,ZBF,47.6297,-65.738899,CA
Bromont,medium_airport,ZBM,45.290798,-72.741402,CA
Kelsey,medium_airport,KES,56.0374984741,-96.50969696039999,CA
Eastmain River,medium_airport,ZEM,52.22639846801758,-78.52249908447266,CA
Faro,medium_airport,ZFA,62.20750045776367,-133.37600708007812,CA
Fond-Du-Lac,medium_airport,ZFD,59.33440017700195,-107.18199920654297,CA
Pukatawagan,medium_airport,XPK,55.7491989136,-101.26599884,CA
Fort Mcpherson,medium_airport,ZFM,67.40750122070312,-134.86099243164062,CA
Tulita,medium_airport,ZFN,64.909697,-125.572998,CA
Grand Forks,medium_airport,ZGF,49.015598,-118.431,CA
Gods River,medium_airport,ZGI,54.839698791503906,-94.07859802246094,CA
Little Grand Rapids,medium_airport,ZGR,52.04560089111328,-95.4657974243164,CA
Jenpeg,medium_airport,ZJG,54.51890182495117,-98.04609680175781,CA
Swan River,medium_airport,ZJN,52.120602,-101.236,CA
Kashechewan,medium_airport,ZKE,52.282501220703125,-81.67780303955078,CA
Thicket Portage,medium_airport,YTD,55.31890106201172,-97.70780181884766,CA
Muskrat Dam,medium_airport,MSA,53.44139862060547,-91.76280212402344,CA
Pikwitonei,medium_airport,PIW,55.58890151977539,-97.16419982910156,CA
Masset,medium_airport,ZMT,54.02750015258789,-132.125,CA
Poplar River,medium_airport,XPP,52.9965258788,-97.2741937637,CA
Sachigo Lake,medium_airport,ZPB,53.8911018371582,-92.19640350341797,CA
Pincher Creek,medium_airport,WPC,49.520599365200006,-113.997001648,CA
Round Lake,medium_airport,ZRJ,52.943599700927734,-91.31279754638672,CA
Sandy Lake,medium_airport,ZSJ,53.06420135498047,-93.34439849853516,CA
South Indian Lake,medium_airport,XSI,56.7928009033,-98.9072036743,CA
Stewart,medium_airport,ZST,55.935410448,-129.982434511,CA
Shamattawa,medium_airport,ZTM,55.8656005859375,-92.0813980102539,CA
Ignace,medium_airport,ZUC,49.428204,-91.720418,CA
Lac Brochet,medium_airport,XLB,58.6175003052,-101.46900177,CA
Wollaston Lake,medium_airport,ZWL,58.10689926147461,-103.1719970703125,CA
Blida,medium_airport,QLD,36.503601,2.81417,DZ
Ouled Sidi Brahim,medium_airport,BUJ,35.3325,4.20639,DZ
Béjaïa,medium_airport,BJA,36.711952,5.069804,DZ
Algiers,large_airport,ALG,36.693886,3.214531,DZ
Djanet,medium_airport,DJG,24.292801,9.45244,DZ
Boufarik,medium_airport,,36.545799,2.87611,DZ
Illizi,medium_airport,VVZ,26.723499,8.62265,DZ
Sétif,medium_airport,QSF,36.178100585900005,5.3244900703399995,DZ
Tamanrasset,medium_airport,TMR,22.8115005493,5.45107984543,DZ
Tahir,medium_airport,GJL,36.795101,5.87361,DZ
Mecheria,medium_airport,MZW,33.535900116,-0.242353007197,DZ
Relizane,medium_airport,,35.752955,0.625877,DZ
Annaba,medium_airport,AAE,36.826781,7.81334,DZ
Constantine,medium_airport,CZL,36.2760009765625,6.620389938354492,DZ
Tébessi,medium_airport,TEE,35.4315986633,8.12071990967,DZ
Batna,medium_airport,BLJ,35.752102,6.30859,DZ
Hassi R'Mel,medium_airport,HRM,32.930401,3.31154,DZ
Tiaret,medium_airport,TID,35.341099,1.46315,DZ
Tindouf,medium_airport,TIN,27.7003993988,-8.167099952700001,DZ
Chlef,medium_airport,CFK,36.217166,1.342237,DZ
Tafraoui,medium_airport,TAF,35.5424,-0.532278,DZ
Zenata,medium_airport,TLM,35.013426,-1.457191,DZ
Es-Sénia,medium_airport,ORN,35.623901,-0.621183,DZ
Béchar,medium_airport,CBH,31.645700454711914,-2.269860029220581,DZ
Ghriss,medium_airport,MUW,35.207699,0.147142,DZ
Adrar,medium_airport,AZR,27.837601,-0.186414,DZ
Biskra,medium_airport,BSK,34.793301,5.73823,DZ
El Menia,medium_airport,ELG,30.580732,2.861595,DZ
El Atteuf,medium_airport,GHA,32.384102,3.79411,DZ
Hassi Messaoud,medium_airport,HME,31.673,6.14044,DZ
In Salah,medium_airport,INZ,27.250999,2.51202,DZ
Touggourt,medium_airport,TGR,33.067799,6.08867,DZ
Laghouat,medium_airport,LOO,33.7644,2.92834,DZ
Guemar,medium_airport,ELU,33.5113983154,6.77679014206,DZ
Timimoun,medium_airport,TMX,29.237101,0.276033,DZ
Ouargla,medium_airport,OGX,31.9172,5.41278,DZ
In Aménas,medium_airport,IAM,28.0515,9.64291,DZ
Cotonou,medium_airport,COO,6.357230186462402,2.384350061416626,BJ
Baicheng,medium_airport,DBC,45.505278,123.019722,CN
Ouagadougou,medium_airport,OUA,12.3532,-1.51242,BF
Bobo Dioulasso,medium_airport,BOY,11.160099983215332,-4.33096981048584,BF
Accra,large_airport,ACC,5.605189800262451,-0.16678600013256073,GH
Ho,medium_airport,,6.579691,0.532547,GH
Tamale,medium_airport,TML,9.55718994140625,-0.8632140159606934,GH
Kumasi,medium_airport,KMS,6.714560031890869,-1.5908199548721313,GH
Sunyani,medium_airport,NYI,7.36183,-2.32876,GH
Sekondi-Takoradi,medium_airport,TKD,4.896059989929199,-1.7747600078582764,GH
Abidjan,medium_airport,ABJ,5.26139,-3.92629,CI
Bouaké,medium_airport,BYK,7.7388,-5.07367,CI
,medium_airport,DJO,6.792809963226318,-6.473189830780029,CI
Korhogo,medium_airport,HGO,9.38718,-5.55666,CI
,medium_airport,MJC,7.272069931030273,-7.58735990524292,CI
,medium_airport,SPY,4.746719837188721,-6.660820007324219,CI
Yamoussoukro,medium_airport,ASK,6.9031701088,-5.36558008194,CI
Abuja,large_airport,ABV,9.006790161132812,7.263169765472412,NG
Uyo,medium_airport,QUO,4.8725,8.093,NG
Akure,medium_airport,AKR,7.246739864349365,5.3010101318359375,NG
Asaba,medium_airport,ABB,6.204167,6.665278,NG
Bauchi,medium_airport,BCU,10.482833,9.744,NG
Benin,medium_airport,BNI,6.316979885101318,5.5995001792907715,NG
Yenagoa,medium_airport,,4.95759,6.203327,NG
Calabar,medium_airport,CBQ,4.976019859313965,8.347200393676758,NG
Enegu,medium_airport,ENU,6.474269866943359,7.561960220336914,NG
Gusau,medium_airport,,12.1717,6.69611,NG
Ibadan,medium_airport,IBA,7.362460136413574,3.97832989692688,NG
Ilorin,medium_airport,ILR,8.440210342407227,4.493919849395752,NG
Owerri,medium_airport,QOW,5.427060127258301,7.206029891967773,NG
Jos,medium_airport,JOS,9.639829635620117,8.869050025939941,NG
Kaduna,medium_airport,KAD,10.696000099182129,7.320109844207764,NG
Kano,medium_airport,KAN,12.0476,8.52462,NG
Maiduguri,medium_airport,MIU,11.855299949645996,13.080900192260742,NG
Makurdi,medium_airport,MDI,7.70388,8.61394,NG
Lagos,large_airport,LOS,6.5773701667785645,3.321160078048706,NG
Minna,medium_airport,MXJ,9.652170181274414,6.462259769439697,NG
Port Harcourt,medium_airport,PHC,5.0154900550842285,6.94959020614624,NG
Sokoto,medium_airport,SKO,12.916299819946289,5.207190036773682,NG
Yola,medium_airport,YOL,9.257550239562988,12.430399894714355,NG
Zaria,medium_airport,ZAR,11.1302,7.68581,NG
Maradi,medium_airport,MFQ,13.5024995803833,7.1267499923706055,NE
Niamey,large_airport,NIM,13.4815,2.18361,NE
Tahoua,medium_airport,THZ,14.8757,5.26536,NE
Agadez,medium_airport,AJY,16.965999603271484,8.000109672546387,NE
Zinder,medium_airport,ZND,13.779000282287598,8.983759880065918,NE
Tabarka,medium_airport,TBJ,36.98,8.87694,TN
Monastir,medium_airport,MIR,35.75809860229492,10.75469970703125,TN
Enfidha,medium_airport,NBE,36.075833,10.438611,TN
Tunis,large_airport,TUN,36.851002,10.2272,TN
Borj Challouf,medium_airport,,37.242356,9.787016,TN
Remada,medium_airport,,32.30619812011719,10.382100105285645,TN
Gafsa,medium_airport,GAF,34.422000885009766,8.822500228881836,TN
Gabès,medium_airport,GAE,33.733691,9.91941,TN
Mellita,medium_airport,DJE,33.875,10.7755,TN
El Borma,medium_airport,EBM,31.704299926757812,9.254619598388672,TN
Sfax,medium_airport,SFA,34.71799850463867,10.690999984741211,TN
Tozeur,medium_airport,TOE,33.939701080322266,8.110560417175293,TN
Niamtougou,medium_airport,LRL,9.767330169677734,1.091249942779541,TG
Lomé,medium_airport,LFW,6.16561,1.25451,TG
Idlès,medium_airport,,26.393417,5.325419,DZ
Antwerp,medium_airport,ANR,51.1894,4.46028,BE
Beauvechain,medium_airport,,50.75859832763672,4.768330097198486,BE
Kleine Brogel,medium_airport,,51.168301,5.47,BE
Zaventem,large_airport,BRU,50.901402,4.48444,BE
Brussels,medium_airport,CRL,50.459202,4.45382,BE
Chièvres,medium_airport,,50.575801849365234,3.8310000896453857,BE
Koksijde,medium_airport,,51.090301513671875,2.652780055999756,BE
Florennes,medium_airport,,50.2433013916,4.64583015442,BE
Wevelgem,medium_airport,KJK,50.8172,3.20472,BE
Liège,medium_airport,LGG,50.637402,5.44322,BE
Ostend,medium_airport,OST,51.1998,2.874673,BE
Altenburg,medium_airport,AOC,50.981945,12.506389,DE
Heringsdorf,medium_airport,HDF,53.8787002563,14.152299881,DE
Magdeburg,medium_airport,ZMG,52.073612,11.626389,DE
Neubrandenburg,medium_airport,FNB,53.6022,13.306,DE
Rothenburg/Oberlausitz,medium_airport,,51.363335,14.95,DE
Berlin,large_airport,BER,52.362247,13.500672,DE
Dresden,medium_airport,DRS,51.134123,13.767831,DE
Erfurt,medium_airport,ERF,50.979801177978516,10.958100318908691,DE
Frankfurt am Main,large_airport,FRA,50.036521,8.561268,DE
Münster,medium_airport,FMO,52.134602,7.68483,DE
Hamburg,large_airport,HAM,53.630402,9.98823,DE
Köln (Cologne),large_airport,CGN,50.865898,7.14274,DE
Düsseldorf,large_airport,DUS,51.289501,6.76678,DE
Munich,large_airport,MUC,48.353802,11.7861,DE
Nuremberg,large_airport,NUE,49.498699,11.078056,DE
Leipzig,large_airport,LEJ,51.423889,12.236389,DE
Saarbrücken,medium_airport,SCN,49.214599609400004,7.10950994492,DE
Stuttgart,large_airport,STR,48.689899444599995,9.22196006775,DE
Hannover,large_airport,HAJ,52.461102,9.68508,DE
Bremen,medium_airport,BRE,53.047501,8.78667,DE
Frankfurt am Main,medium_airport,,49.959999,8.645833,DE
Frankfurt am Main,medium_airport,HHN,49.9487,7.26389,DE
Mannheim,medium_airport,MHG,49.473057,8.514167,DE
Mainz,medium_airport,,49.967499,8.147222,DE
Eisenach,medium_airport,EIB,50.991604,10.47973,DE
,medium_airport,SGE,50.707698822021484,8.082969665527344,DE
Hamburg,medium_airport,XFW,53.5352783203125,9.835556030273438,DE
Kiel,medium_airport,KEL,54.379444,10.145278,DE
Lübeck,medium_airport,LBC,53.8054008484,10.7192001343,DE
Memmingen,medium_airport,FMM,47.988800048799995,10.2395000458,DE
Mönchengladbach,medium_airport,MGL,51.230278,6.504444,DE
Paderborn,medium_airport,PAD,51.614101409899995,8.616319656369999,DE
Weeze,medium_airport,NRN,51.6024017334,6.14216995239,DE
Dortmund,medium_airport,DTM,51.518299,7.61224,DE
Augsburg,medium_airport,AGB,48.425278,10.931667,DE
Weßling,medium_airport,OBF,48.081402,11.2831,DE
Friedrichshafen,medium_airport,FDH,47.671299,9.51149,DE
,medium_airport,SZW,53.426998,11.7834,DE
Bamberg,medium_airport,,49.920403,10.914233,DE
Bayreuth,medium_airport,BYU,49.985001,11.64,DE
Hof,medium_airport,HOQ,50.288612,11.856389,DE
Baden-Baden,medium_airport,FKB,48.7794,8.0805,DE
Donaueschingen,medium_airport,,47.973331,8.522222,DE
,medium_airport,LHA,48.3693008423,7.82772016525,DE
Schwäbisch Hall,medium_airport,,49.1183319092,9.783888816829998,DE
Zerbst/Anhalt,medium_airport,,52.000832,12.148611,DE
Braunschweig,medium_airport,BWE,52.319199,10.5561,DE
Kassel,medium_airport,KSF,51.417273,9.384967,DE
Westerland,medium_airport,GWT,54.9132,8.34047,DE
Keila,medium_airport,,59.26029968261719,24.208499908447266,EE
Kärdla,medium_airport,KDL,58.99079895019531,22.830699920654297,EE
Kuressaare,medium_airport,URE,58.22990036010742,22.50950050354004,EE
Pärnu,medium_airport,EPU,58.41899871826172,24.47279930114746,EE
Berenice Troglodytica,medium_airport,EES,23.989802,35.465047,EG
Tallinn,large_airport,TLL,59.41329956049999,24.832799911499997,EE
Tartu,medium_airport,TAY,58.307499,26.690399,EE
Enontekio,medium_airport,ENF,68.362602233887,23.424299240112,FI
Jämsä,medium_airport,KEV,61.856039,24.786686,FI
Helsinki,large_airport,HEL,60.3172,24.963301,FI
Kitee,medium_airport,KTQ,62.1661,30.073601,FI
Ivalo,medium_airport,IVL,68.607299804688,27.405300140381,FI
Joensuu / Liperi,medium_airport,JOE,62.662899,29.6075,FI
Jyväskylän Maalaiskunta,medium_airport,JYV,62.399502,25.678301,FI
Kauhava,medium_airport,KAU,63.127102,23.051399,FI
Kemi / Tornio,medium_airport,KEM,65.778701782227,24.582099914551,FI
Kajaani,medium_airport,KAJ,64.2855,27.6924,FI
,medium_airport,KHJ,62.463212,22.390817,FI
Kokkola / Kruunupyy,medium_airport,KOK,63.721199,23.143101,FI
Kuusamo,medium_airport,KAO,65.987602,29.239401,FI
Kittilä,medium_airport,KTT,67.700996398926,24.846799850464,FI
Kuopio / Siilinjärvi,medium_airport,KUO,63.007099,27.7978,FI
Lappeenranta,medium_airport,LPP,61.044601,28.144743,FI
Mariehamn,medium_airport,MHQ,60.1222,19.898199,FI
Mikkeli,medium_airport,MIK,61.6866,27.201799,FI
Oulu / Oulunsalo,medium_airport,OUL,64.930099,25.354601,FI
Pori,medium_airport,POR,61.4617,21.799999,FI
Helsinki (Pyhtää),medium_airport,,60.479167,26.593889,FI
Rovaniemi,medium_airport,RVN,66.564796447754,25.830400466919,FI
Savonlinna,medium_airport,SVL,61.9431,28.945101,FI
Seinäjoki / Ilmajoki,medium_airport,SJY,62.692101,22.8323,FI
Sodankyla,medium_airport,SOT,67.3949966431,26.6191005707,FI
Tampere / Pirkkala,medium_airport,TMP,61.414101,23.604401,FI
Turku,medium_airport,TKU,60.514099,22.2628,FI
Utti / Valkeala,medium_airport,UTI,60.8964,26.9384,FI
Vaasa,medium_airport,VAA,63.050701,21.762199,FI
Varkaus / Joroinen,medium_airport,VRK,62.171101,27.868601,FI
,medium_airport,YLI,64.054722,24.725278,FI
Bilbeis,medium_airport,,30.42060089111328,31.67889976501465,EG
Belfast,large_airport,BFS,54.6575012207,-6.2158298492399995,GB
Enniskillen,medium_airport,ENK,54.398899,-7.65167,GB
Belfast,medium_airport,BHD,54.618099,-5.8725,GB
Derry,medium_airport,LDY,55.04280090332031,-7.161109924316406,GB
Birmingham,large_airport,BHX,52.453899383499994,-1.74802994728,GB
Coventry,medium_airport,CVT,52.3697013855,-1.4797199964499999,GB
Staverton,medium_airport,GLO,51.89419937133789,-2.167220115661621,GB
Nottingham,medium_airport,NQT,52.919998,-1.07917,GB
Manchester,large_airport,MAN,53.349375,-2.279521,GB
Doncaster,medium_airport,DSA,53.480538,-1.010656,GB
Chivenor,medium_airport,,51.08720016479492,-4.1503400802612305,GB
Amesbury,medium_airport,,51.152199,-1.74741,GB
Helston,medium_airport,,50.08610153198242,-5.255710124969482,GB
St. Athan,medium_airport,,51.4048,-3.43575,GB
Yeovil,medium_airport,YEO,51.0093994140625,-2.638819932937622,GB
Campbeltown,medium_airport,CAL,55.437198638916016,-5.686389923095703,GB
Eday,medium_airport,EOI,59.19060134887695,-2.7722198963165283,GB
Haverfordwest,medium_airport,HAW,51.833099365234375,-4.9611101150512695,GB
Cardiff,medium_airport,CWL,51.396702,-3.34333,GB
Swansea,medium_airport,SWS,51.60530090332031,-4.0678300857543945,GB
Bristol,medium_airport,BRS,51.382702,-2.71909,GB
Liverpool,medium_airport,LPL,53.333599,-2.84972,GB
London,large_airport,LTN,51.874698638916016,-0.36833301186561584,GB
Bournemouth,medium_airport,BOH,50.779999,-1.8425,GB
Southampton,medium_airport,SOU,50.950298,-1.3568,GB
Lasham,medium_airport,,51.187199,-1.0335,GB
Newquay,medium_airport,NQY,50.440601,-4.99541,GB
Saint Anne,medium_airport,ACI,49.706104,-2.21472,GG
Saint Peter Port,medium_airport,GCI,49.435001,-2.60197,GG
Saint Helier,medium_airport,JER,49.20790100097656,-2.195509910583496,JE
Brighton,medium_airport,ESH,50.835602,-0.297222,GB
London,medium_airport,BQH,51.33079910279999,0.0324999988079,GB
London,large_airport,LGW,51.148102,-0.190278,GB
London,medium_airport,LCY,51.505299,0.055278,GB
Farnborough,medium_airport,FAB,51.2757987976,-0.776332974434,GB
Yateley,medium_airport,BBS,51.32389831542969,-0.8475000262260437,GB
London,large_airport,LHR,51.4706,-0.461941,GB
London,medium_airport,SEN,51.5714,0.695556,GB
"Lydd, Ashford",medium_airport,LYX,50.9561,0.939167,GB
Carlisle,medium_airport,CAX,54.9375,-2.8091700077056885,GB
Blackpool,medium_airport,BLK,53.77170181274414,-3.0286099910736084,GB
Grimsby,medium_airport,HUY,53.57440185546875,-0.350832998752594,GB
Barrow-in-Furness,medium_airport,BWF,54.1286111,-3.2675,GB
Leeds,medium_airport,LBA,53.865898,-1.66057,GB
Warton,medium_airport,WRT,53.745098,-2.88306,GB
Hawarden,medium_airport,CEG,53.178101,-2.97778,GB
Castletown,medium_airport,IOM,54.083302,-4.62389,IM
Newcastle,medium_airport,NCL,55.037498,-1.69167,GB
"Darlington, Durham",medium_airport,MME,54.509201,-1.42941,GB
Nottingham,medium_airport,EMA,52.8311,-1.32806,GB
Spadeadam,medium_airport,,55.0499992371,-2.54999995232,GB
Shawbury,medium_airport,,52.79819869995117,-2.6680400371551514,GB
Angelsey,medium_airport,VLY,53.2481002808,-4.53533983231,GB
Orkney Islands,medium_airport,KOI,58.957801818847656,-2.9049999713897705,GB
Lerwick,medium_airport,LSI,59.87889862060547,-1.2955600023269653,GB
Wick,medium_airport,WIC,58.458900451660156,-3.09306001663208,GB
Aberdeen,medium_airport,ABZ,57.2019,-2.19778,GB
Inverness,medium_airport,INV,57.54249954223633,-4.047500133514404,GB
"Paisley, Renfrewshire",large_airport,GLA,55.871899,-4.43306,GB
Edinburgh,large_airport,EDI,55.950145,-3.372288,GB
Port Ellen,medium_airport,ILY,55.68190002441406,-6.256669998168945,GB
"Prestwick, South Ayrshire",medium_airport,PIK,55.502003,-4.587019,GB
Balivanich,medium_airport,BEB,57.48109817504883,-7.3627800941467285,GB
Shetland Islands,medium_airport,SCS,60.43280029296875,-1.2961100339889526,GB
Dundee,medium_airport,DND,56.45249938964844,-3.025830030441284,GB
"Stornoway, Western Isles",medium_airport,SYY,58.215599,-6.33111,GB
Eoligarry,medium_airport,BRR,57.0228,-7.44306,GB
Balemartine,medium_airport,TRE,56.49919891357422,-6.869170188903809,GB
"Leuchars, Fife",medium_airport,ADX,56.37398,-2.868862,GB
Lossiemouth,medium_airport,LMO,57.7052001953125,-3.339169979095459,GB
Cambridge,medium_airport,CBG,52.205002,0.175,GB
Norwich,medium_airport,NWI,52.6758,1.28278,GB
London,large_airport,STN,51.8849983215,0.234999999404,GB
Cranfield,medium_airport,,52.072201,-0.616667,GB
Exeter,medium_airport,EXT,50.734402,-3.41389,GB
Kidlington,medium_airport,OXF,51.8368988037,-1.32000005245,GB
Benson,medium_airport,BEX,51.616401672399995,-1.09582996368,GB
Lakenheath,medium_airport,LKZ,52.409302,0.561,GB
Mildenhall,medium_airport,MHZ,52.3619,0.486406,GB
Stowmarket,medium_airport,,52.127451,0.956189,GB
St. Ives,medium_airport,QUY,52.3572006226,-0.107832998037,GB
Fairford,medium_airport,FFD,51.682201,-1.79003,GB
Brize Norton,medium_airport,BZZ,51.75,-1.58362,GB
Odiham,medium_airport,ODH,51.2341003418,-0.94282501936,GB
Cosford,medium_airport,,52.639999,-2.30558,GB
London,medium_airport,NHT,51.553001403799996,-0.418166995049,GB
Coningsby,medium_airport,QCY,53.0929985046,-0.166014000773,GB
Dishforth,medium_airport,,54.1371994019,-1.42025005817,GB
Leeming,medium_airport,,54.2924,-1.5354,GB
Church Fenton,medium_airport,,53.834301,-1.1955,GB
Thetford,medium_airport,BEQ,52.34260177612305,0.7729390263557434,GB
Scampton,medium_airport,SQZ,53.307800293,-0.550832986832,GB
Wittering,medium_airport,,52.612598,-0.476453,GB
Linton-On-Ouse,medium_airport,HRT,54.0489006042,-1.2527500391,GB
Waddington,medium_airport,WTN,53.1661987305,-0.523810982704,GB
Topcliffe,medium_airport,,54.205501556399994,-1.3820899725,GB
Cranwell,medium_airport,,53.0303001404,-0.48324200511,GB
Grantham,medium_airport,,52.962200164799995,-0.561625003815,GB
Marham,medium_airport,KNF,52.648395,0.550692,GB
Mount Pleasant,medium_airport,MPN,-51.82279968261719,-58.447200775146484,FK
Amsterdam,large_airport,AMS,52.308601,4.76389,NL
Weert,medium_airport,,51.255299,5.60139,NL
Maastricht,medium_airport,MST,50.911701,5.77014,NL
Arnhem,medium_airport,,52.0606,5.87306,NL
Venray,medium_airport,,51.51729965209961,5.855720043182373,NL
Eindhoven,large_airport,EIN,51.4500999451,5.37452983856,NL
Groningen,medium_airport,GRQ,53.1197013855,6.57944011688,NL
Breda,medium_airport,GLZ,51.56740188598633,4.931829929351807,NL
Den Helder,medium_airport,DHR,52.92340087890625,4.780620098114014,NL
Lelystad,medium_airport,LEY,52.4603,5.52722,NL
Leeuwarden,medium_airport,LWR,53.228599548339844,5.760560035705566,NL
Rotterdam,medium_airport,RTM,51.956902,4.43722,NL
Enschede,medium_airport,ENS,52.275833,6.889167,NL
Uden,medium_airport,,51.657222,5.7077778,NL
Bergen Op Zoom,medium_airport,WOE,51.4491,4.34203,NL
Cork,medium_airport,ORK,51.841301,-8.49111,IE
Galway,medium_airport,GWY,53.300201416015625,-8.941590309143066,IE
Donegal,medium_airport,CFN,55.0442008972168,-8.340999603271484,IE
Dublin,large_airport,DUB,53.428713,-6.262121,IE
Charlestown,medium_airport,NOC,53.910301,-8.81849,IE
Killarney,medium_airport,KIR,52.180901,-9.52378,IE
Baldonnel,medium_airport,,53.301700592,-6.451330184940001,IE
Shannon,large_airport,SNN,52.702,-8.92482,IE
Sligo,medium_airport,SXL,54.280200958252,-8.5992097854614,IE
Waterford,medium_airport,WAT,52.187198638916016,-7.0869598388671875,IE
Leixlip,medium_airport,,53.3522,-6.48611,IE
Aarhus,medium_airport,AAR,56.303331,10.618286,DK
Billund,large_airport,BLL,55.7402992249,9.15178012848,DK
Copenhagen,large_airport,CPH,55.617900848389,12.656000137329,DK
Esbjerg,medium_airport,EBJ,55.525902,8.5534,DK
Karup,medium_airport,KRP,56.29750061035156,9.124629974365234,DK
Lolland Falster / Maribo,medium_airport,MRW,54.699299,11.4401,DK
Odense,medium_airport,ODE,55.47669982910156,10.330900192260742,DK
Copenhagen,medium_airport,RKE,55.585601806640625,12.131400108337402,DK
Rønne,medium_airport,RNN,55.06330108642578,14.759599685668945,DK
Sønderborg,medium_airport,SGD,54.96440124511719,9.791729927062988,DK
Sindal,medium_airport,CNL,57.503502,10.2294,DK
Vojens,medium_airport,SKS,55.221048,9.26702,DK
Skive,medium_airport,SQW,56.550201416015625,9.172980308532715,DK
Thisted,medium_airport,TED,57.06880187988281,8.705220222473145,DK
Kolding / Vamdrup,medium_airport,,55.436298,9.33092,DK
Vágar,medium_airport,FAE,62.063256,-7.275782,FO
Skjern / Ringkøbing,medium_airport,STA,55.9901008605957,8.353910446166992,DK
Aalborg,medium_airport,AAL,57.092759,9.849243,DK
Luxembourg,large_airport,LUX,49.6233333,6.2044444,LU
Ålesund,medium_airport,AES,62.5625,6.1197,NO
Andenes,medium_airport,ANX,69.292503,16.144199,NO
Alta,medium_airport,ALF,69.976097106934,23.371700286865,NO
Brønnøy,medium_airport,BNN,65.461098,12.2175,NO
Bodø,medium_airport,BOO,67.269203,14.3653,NO
Bergen,large_airport,BGO,60.2934,5.21814,NO
Båtsfjord,medium_airport,BJF,70.60050201416,29.691400527954,NO
Berlevåg,medium_airport,BVG,70.871399,29.034201,NO
Kjevik,medium_airport,KRS,58.204201,8.08537,NO
Målselv,medium_airport,BDU,69.055801391602,18.540399551392,NO
Engeløy,medium_airport,,67.967222,14.9925,NO
Evenes,medium_airport,EVE,68.491302490234,16.678100585938,NO
Fagernes,medium_airport,VDB,61.015598,9.28806,NO
Florø,medium_airport,FRO,61.583599090576,5.0247201919556,NO
Oslo,large_airport,OSL,60.193901,11.1004,NO
Karmøy,medium_airport,HAU,59.345299,5.20836,NO
Hammerfest,medium_airport,HFT,70.679702758789,23.668600082397,NO
Honningsvåg,medium_airport,HVG,71.009697,25.983601,NO
Kvernberget,medium_airport,KSU,63.111801,7.82452,NO
Kirkenes,medium_airport,KKN,69.7258,29.8913,NO
Leknes,medium_airport,LKN,68.152496337891,13.609399795532,NO
Mehamn,medium_airport,MEH,71.02970123291,27.826700210571,NO
Årø,medium_airport,MOL,62.744701,7.2625,NO
Mosjøen,medium_airport,MJF,65.783997,13.2149,NO
Lakselv,medium_airport,LKL,70.068802,24.973499,NO
Notodden,medium_airport,NTB,59.565701,9.21222,NO
Ørland,medium_airport,OLA,63.69889831542969,9.604000091552734,NO
Ørsta,medium_airport,HOV,62.180000305176,6.0741000175476,NO
Mo i Rana,medium_airport,MQN,66.363899230957,14.301400184631,NO
Rørvik,medium_airport,RVK,64.838302612305,11.14610004425,NO
Røros,medium_airport,RRS,62.578399658203,11.342300415039,NO
Oslo,medium_airport,RYG,59.378817,10.785439,NO
Longyearbyen,medium_airport,LYR,78.246101379395,15.465600013733,NO
Svolvær,medium_airport,SVJ,68.243301,14.6692,NO
Hadsel,medium_airport,SKN,68.578827,15.033417,NO
Geiteryggen,medium_airport,SKE,59.185001373291016,9.566940307617188,NO
Leirvik,medium_airport,SRP,59.791901,5.34085,NO
Sørkjosen,medium_airport,SOJ,69.786796569824,20.959400177002,NO
Vardø,medium_airport,VAW,70.355400085449,31.044900894165,NO
Alstahaug,medium_airport,SSJ,65.956802,12.4689,NO
Tromsø,large_airport,TOS,69.683296,18.9189,NO
Torp,medium_airport,TRF,59.1866989136,10.258600235,NO
Trondheim,large_airport,TRD,63.457802,10.924,NO
Vadsø,medium_airport,VDS,70.065299987793,29.844699859619,NO
Yan'an (Baota),medium_airport,ENY,36.479413,109.464083,CN
Stavanger,large_airport,SVG,58.876701,5.63778,NO
Bydgoszcz,medium_airport,BZG,53.096802,17.977699,PL
Lębork,medium_airport,,54.416,17.7633,PL
Dęblin,medium_airport,,51.551399231,21.8936004639,PL
Gdańsk,large_airport,GDN,54.377601623535156,18.46619987487793,PL
,medium_airport,,52.8293991089,18.3306007385,PL
Kraków,large_airport,KRK,50.077702,19.7848,PL
,medium_airport,,52.3316993713,16.9664001465,PL
Katowice,medium_airport,KTW,50.4743,19.08,PL
Lublin,medium_airport,LUZ,51.240278,22.713611,PL
,medium_airport,,51.551700592,19.179100036599998,PL
Łódź,medium_airport,LCJ,51.721900939899996,19.3980998993,PL
Leszno,medium_airport,,51.834999,16.5219,PL
Leczyca,medium_airport,,52.004699707,19.1455993652,PL
,medium_airport,,54.0269012451,19.134199142499998,PL
Mirosławiec,medium_airport,,53.395099639899996,16.0827999115,PL
,medium_airport,,52.1954994202,21.6558990479,PL
Warsaw,medium_airport,WMI,52.451099,20.6518,PL
Gdynia,medium_airport,,54.5797,18.5172,PL
Poznań,medium_airport,POZ,52.421001,16.8263,PL
,medium_airport,,52.379398,17.853901,PL
Radom,medium_airport,RDO,51.389198,21.213301,PL
Rzeszów,medium_airport,RZE,50.110001,22.018999,PL
Goleniow,medium_airport,SZZ,53.584702,14.9022,PL
,medium_airport,,53.790599823,15.826299667399999,PL
Olsztyn,medium_airport,SZY,53.481899,20.9377,PL
Tomaszów Mazowiecki,medium_airport,,51.584400177,20.0977993011,PL
Warsaw,large_airport,WAW,52.1656990051,20.967100143399996,PL
Wrocław,medium_airport,WRO,51.102699,16.885799,PL
Babimost,medium_airport,IEG,52.138500213600004,15.7986001968,PL
Folgueroles,medium_airport,,41.9527,2.3072,ES
Linköping,medium_airport,,58.40230178833008,15.525699615478516,SE
Ronneby,medium_airport,RNB,56.266701,15.265,SE
Råda,medium_airport,,58.49810028076172,13.053199768066406,SE
Gothenburg,large_airport,GOT,57.662799835205,12.279800415039,SE
Jönköping,medium_airport,JKG,57.757598876953125,14.068699836730957,SE
Gothenburg,medium_airport,GSE,57.7747,11.8704,SE
Skövde,medium_airport,KVB,58.45640182495117,13.972700119018555,SE
Trollhättan,medium_airport,THN,58.31809997558594,12.345000267028809,SE
Såtenäs,medium_airport,,58.42639923095703,12.714400291442871,SE
,medium_airport,KSK,59.34590148925781,14.49590015411377,SE
Mora,medium_airport,MXX,60.957901,14.5114,SE
Nyköping,medium_airport,NYO,58.788601,16.912201,SE
Sälen / Trysil,medium_airport,SCR,61.158393,12.842503,SE
Björkvik,medium_airport,,58.79079818725586,16.571199417114258,SE
Kristianstad,medium_airport,KID,55.92169952392578,14.08549976348877,SE
Kalmar,medium_airport,KLR,56.685501,16.2876,SE
Malmö,medium_airport,MMX,55.536305,13.376198,SE
Halmstad,medium_airport,HAD,56.69110107421875,12.820199966430664,SE
Växjö,medium_airport,VXO,56.929100036621094,14.727999687194824,SE
Sveg,medium_airport,EVG,62.047798,14.4229,SE
Gällivare,medium_airport,GEV,67.13240051269531,20.814599990844727,SE
Nyland,medium_airport,KRF,63.048599,17.7689,SE
Lycksele,medium_airport,LYC,64.548302,18.7162,SE
Sundsvall/ Härnösand,medium_airport,SDL,62.528099060058594,17.443899154663086,SE
Örnsköldsvik,medium_airport,OER,63.40829849243164,18.989999771118164,SE
Kiruna,medium_airport,KRN,67.821998596191,20.336799621582,SE
Skellefteå,medium_airport,SFT,64.62480163574219,21.076900482177734,SE
Umeå,medium_airport,UME,63.791801452637,20.282800674438,SE
Vilhelmina,medium_airport,VHM,64.579102,16.833599,SE
Arvidsjaur,medium_airport,AJR,65.59030151367188,19.28190040588379,SE
Söderhamn,medium_airport,SOO,61.26150131225586,17.09910011291504,SE
Östersund,medium_airport,OSD,63.194400787354,14.50030040741,SE
Örebro,medium_airport,ORB,59.22370147705078,15.038000106811523,SE
Råda,medium_airport,HFS,60.0201,13.5789,SE
Karlstad,medium_airport,KSD,59.444698333699996,13.337400436400001,SE
Stockholm / Västerås,medium_airport,VST,59.58940124511719,16.63360023498535,SE
Luleå,medium_airport,LLA,65.5438,22.122,SE
Stockholm,large_airport,ARN,59.651901245117,17.918600082397,SE
Stockholm,medium_airport,BMA,59.354400634765625,17.941699981689453,SE
Borlange,medium_airport,BLE,60.422001,15.5152,SE
Gävle / Sandviken,medium_airport,GVX,60.593299865722656,16.951400756835938,SE
Linköping,medium_airport,LPI,58.4062004089,15.680500030500001,SE
Norrköping,medium_airport,NRK,58.586299896240234,16.250600814819336,SE
Torsby,medium_airport,TYF,60.1576,12.9913,SE
Eskilstuna,medium_airport,EKT,59.35110092163086,16.70840072631836,SE
Visby,medium_airport,VBY,57.662799835205,18.346200942993,SE
Ängelholm,medium_airport,AGH,56.29610061645508,12.847100257873535,SE
Ljungbyhed,medium_airport,,56.082801818847656,13.212499618530273,SE
Storuman,medium_airport,SQO,64.960899,17.6966,SE
,medium_airport,PJA,67.24559783935547,23.068899154663086,SE
Hemavan,medium_airport,HMV,65.806099,15.0828,SE
Trier,medium_airport,SPM,49.9726982117,6.69250011444,DE
Ramstein,medium_airport,RMS,49.436901,7.60028,DE
,medium_airport,,52.2785,9.08217,DE
,medium_airport,,52.591202,10.0221,DE
Fritzlar,medium_airport,FRZ,51.1146,9.286,DE
Laupheim,medium_airport,,48.220299,9.91002,DE
Niederstetten,medium_airport,,49.391945,9.958889,DE
,medium_airport,,52.919399,10.185827,DE
,medium_airport,,49.698699951171875,11.940199851989746,DE
,medium_airport,,49.218101501464844,11.836099624633789,DE
Cuxhaven,medium_airport,FCN,53.7677001953,8.658499717709999,DE
Diepholz,medium_airport,,52.585556,8.342222,DE
,medium_airport,GKE,50.9608,6.04242,DE
,medium_airport,,54.312199,9.53817,DE
Rostock,medium_airport,RLG,53.9182014465,12.278300285299999,DE
,medium_airport,,50.8312,6.65817,DE
Jagel,medium_airport,WBG,54.459301,9.51633,DE
,medium_airport,,53.547798,7.66733,DE
,medium_airport,,52.457298,9.42717,DE
Wiesbaden,medium_airport,WIE,50.049800872802734,8.325400352478027,DE
,medium_airport,,50.1738014221,7.06333017349,DE
,medium_airport,,51.767799,13.1677,DE
Manching,medium_airport,IGS,48.7156982421875,11.534000396728516,DE
Lagerlechfeld,medium_airport,,48.185504,10.8612,DE
Neuburg (Donau),medium_airport,,48.710999,11.2115,DE
Daugavpils,medium_airport,DGP,55.944721,26.665001,LV
Jēkabpils,medium_airport,,56.534698,25.8925,LV
Liepāja,medium_airport,LPX,56.51750183105469,21.096900939941406,LV
Riga,large_airport,RIX,56.923599,23.9711,LV
Tukums,medium_airport,,56.9422,23.2239,LV
Ventspils,medium_airport,VNT,57.35779953,21.5442008972,LV
Kaunas,medium_airport,KUN,54.96390151977539,24.084800720214844,LT
Kėdainiai,medium_airport,,55.31169891357422,23.95639991760254,LT
Palanga,medium_airport,PLQ,55.973201751708984,21.093900680541992,LT
Panevėžys,medium_airport,PNV,55.729400634765625,24.460800170898438,LT
Šiauliai,medium_airport,SQQ,55.89390182495117,23.395000457763672,LT
Šiauliai,medium_airport,,56.070599,23.5581,LT
Vilnius,large_airport,VNO,54.634102,25.285801,LT
Alexander Bay,medium_airport,ALJ,-28.575001,16.5333,ZA
Aggeneys,medium_airport,AGZ,-29.28179931640625,18.813899993896484,ZA
Bisho,medium_airport,BIY,-32.8970985413,27.279100418099997,ZA
Bloemfontain,medium_airport,BFN,-29.092699,26.302401,ZA
Umjindi (Barberton),medium_airport,,-25.716869,30.97518,ZA
Cape Town,large_airport,CPT,-33.9648017883,18.6016998291,ZA
East London,medium_airport,ELS,-33.035599,27.825899,ZA
Ermelo,medium_airport,,-26.4955997467041,29.979799270629883,ZA
Ficksburg,medium_airport,FCB,-28.82309913635254,27.908899307250977,ZA
Midrand,medium_airport,GCJ,-25.986299514799995,28.1401004791,ZA
George,medium_airport,GRJ,-34.0056,22.378902,ZA
Johannesburg,medium_airport,QRA,-26.2425,28.151199,ZA
Harrismith,medium_airport,HRS,-28.23509979248047,29.106199264526367,ZA
Klerksdorp,medium_airport,KXE,-26.8710994720459,26.718000411987305,ZA
Kimberley,medium_airport,KIM,-28.802799224900003,24.7651996613,ZA
Mpumalanga,medium_airport,MQP,-25.3831996918,31.1056003571,ZA
Kuruman,medium_airport,KMH,-27.45669937133789,23.411399841308594,ZA
Kleinsee,medium_airport,KLZ,-29.6884002686,17.093999862700002,ZA
Johannesburg,medium_airport,HLA,-25.938499,27.9261,ZA
Lime Acres,medium_airport,LMR,-28.36009979248047,23.43910026550293,ZA
Durban,large_airport,DUR,-29.6144444444,31.1197222222,ZA
Langebaanweg,medium_airport,SDB,-32.968898773199996,18.1602993011,ZA
Ladysmith,medium_airport,LAY,-28.5816993713,29.749700546299998,ZA
Malamala,medium_airport,AAM,-24.818099975585938,31.544599533081055,ZA
Margate,medium_airport,MGH,-30.8574008942,30.343000412,ZA
Mafeking,medium_airport,MBD,-25.798400878900004,25.548000335699996,ZA
Malelane,medium_airport,LLE,-25.4300003052,31.5767002106,ZA
Silveroaks,medium_airport,,-25.7045001984,26.9090003967,ZA
Mkuze,medium_airport,MZQ,-27.626100540161133,32.0443000793457,ZA
Newcastle,medium_airport,NCS,-27.7705993652,29.976900100699996,ZA
Oudtshoorn,medium_airport,OUH,-33.6069984436,22.188999176,ZA
Johannesburg,large_airport,JNB,-26.1392,28.246,ZA
Gqeberha (Port Elizabeth),medium_airport,PLZ,-33.984901,25.6173,ZA
Plettenberg Bay,medium_airport,PBZ,-34.08816,23.328723,ZA
Phalaborwa,medium_airport,PHW,-23.937200546299998,31.1553993225,ZA
Polokwane,medium_airport,,-23.9260997772,29.4843997955,ZA
Port St Johns,medium_airport,JOH,-31.60612,29.52175,ZA
Pietermaritzburg,medium_airport,PZB,-29.649000167799997,30.3987007141,ZA
Polokwane,medium_airport,PTG,-23.845269,29.458615,ZA
Potchefstroom,medium_airport,PCF,-26.670999527,27.0818996429,ZA
Queenstown,medium_airport,UTW,-31.92020034790039,26.882200241088867,ZA
Richards Bay,medium_airport,RCB,-28.740999221800003,32.0920982361,ZA
Rustenburg,medium_airport,,-25.6443004608,27.271099090599996,ZA
Robertson,medium_airport,ROD,-33.812198638916016,19.902799606323242,ZA
Springbok,medium_airport,SBU,-29.689300537109375,17.939599990844727,ZA
Secunda,medium_airport,ZEC,-26.52409935,29.170099258399997,ZA
Saldanha-Vredenburg,medium_airport,,-32.9641,17.969299,ZA
Sishen,medium_airport,SIS,-27.6485996246,22.9993000031,ZA
Skukuza,medium_airport,SZK,-24.960899353,31.5886993408,ZA
Tzaneen,medium_airport,LTA,-23.8243999481,30.329299926799997,ZA
Ulundi,medium_airport,ULD,-28.3206005096,31.4165000916,ZA
Upington,medium_airport,UTN,-28.39909935,21.260200500499998,ZA
Mthatha,medium_airport,UTT,-31.546363184900002,28.6733551025,ZA
Vyrburg,medium_airport,VRU,-26.9824008942,24.7287998199,ZA
Durban,medium_airport,VIR,-29.770599365234375,31.058399200439453,ZA
Vredendal,medium_airport,VRE,-31.641000747680664,18.5447998046875,ZA
Vereeniging,medium_airport,,-26.566400528,27.9608001709,ZA
Pretoria,medium_airport,PRY,-25.6539,28.224199,ZA
Pretoria,medium_airport,WKF,-25.829999923699997,28.222499847399998,ZA
Cape Town,medium_airport,,-33.90019989013672,18.498300552368164,ZA
Francistown,medium_airport,FRW,-21.15914,27.468545,BW
Jwaneng,medium_airport,JWA,-24.602301,24.691,BW
Kasane,medium_airport,BBK,-17.832899,25.162399,BW
Maun,medium_airport,MUB,-19.97260093688965,23.431100845336914,BW
Gaborone,large_airport,GBE,-24.555201,25.9182,BW
Sowa,medium_airport,SXN,-20.5534,26.115801,BW
Selebi Phikwe,medium_airport,PKW,-22.0583,27.8288,BW
Brazzaville,medium_airport,BZV,-4.251699924468994,15.253000259399414,CG
Oyo,medium_airport,OLL,-1.226666,15.91,CG
Owando,medium_airport,FTX,-0.5313500165939331,15.95009994506836,CG
,medium_airport,OUE,1.6159900426899998,16.0379009247,CG
Dolisie,medium_airport,DIS,-4.20635,12.6599,CG
Pointe Noire,medium_airport,PNR,-4.81603,11.8866,CG
Manzini,medium_airport,MTS,-26.528999,31.307501,SZ
Mpaka,large_airport,SHO,-26.358611,31.716944,SZ
Bangui,medium_airport,BGF,4.39847993850708,18.518800735473633,CF
Berbérati,medium_airport,BBT,4.2215800285339355,15.786399841308594,CF
Bata,medium_airport,BSG,1.90547,9.80568,GQ
Malabo,medium_airport,SSG,3.755270004272461,8.708720207214355,GQ
Cat Hill,medium_airport,ASI,-7.9696,-14.3937,SH
Plaine Magnein,large_airport,MRU,-20.430201,57.683601,MU
Port Mathurin,medium_airport,RRG,-19.7577,63.361,MU
Diego Garcia,medium_airport,NKW,-7.31327,72.411102,IO
Tiko,medium_airport,TKC,4.08919000626,9.360529899600001,CM
Douala,medium_airport,DLA,4.0060801506,9.719479560849999,CM
Maroua,medium_airport,MVR,10.451399803161621,14.257399559020996,CM
Foumban,medium_airport,FOM,5.636919975280762,10.750800132751465,CM
N'Gaoundéré,medium_airport,NGE,7.3570098876953125,13.559200286865234,CM
Garoua,medium_airport,GOU,9.33588981628418,13.370100021362305,CM
Bafoussam,medium_airport,BFX,5.536920070650001,10.354599952700001,CM
Bamenda,medium_airport,BPC,6.039239883422852,10.122599601745605,CM
Yaoundé,medium_airport,YAO,3.8360400199890137,11.523500442504883,CM
Yaoundé,medium_airport,NSI,3.722559928894043,11.553299903869629,CM
Chingola,medium_airport,CGJ,-12.572799682617,27.893899917603,ZM
Lusaka,medium_airport,,-15.4138002396,28.3306999207,ZM
Livingstone,medium_airport,LVI,-17.8218,25.822701,ZM
Lusaka,large_airport,LUN,-15.330833,28.452722,ZM
Mfuwe,medium_airport,MFU,-13.258899688720703,31.936599731445312,ZM
Mongu,medium_airport,MNR,-15.254500389099121,23.16230010986328,ZM
Ndola,medium_airport,NLA,-12.998512,28.664047,ZM
Kitwe,medium_airport,KIW,-12.900500297546387,28.149900436401367,ZM
Moroni,medium_airport,HAH,-11.5337,43.2719,KM
Fomboni,medium_airport,NWA,-12.2981,43.766399,KM
Ouani,medium_airport,AJN,-12.131047,44.430044,KM
Dzaoudzi,medium_airport,DZA,-12.809319,45.281815,YT
St Denis,large_airport,RUN,-20.8871,55.5103,RE
St Pierre,medium_airport,ZSE,-21.320899963378906,55.42499923706055,RE
Antananarivo,large_airport,TNR,-18.7969,47.478802,MG
Miandrivazo,medium_airport,ZVA,-19.562799,45.450802,MG
Vohilava,medium_airport,SMS,-17.093901,49.8158,MG
Toamasina,medium_airport,TMM,-18.109501,49.392502,MG
Morondava,medium_airport,MOQ,-20.2847,44.3176,MG
Antisiranana,medium_airport,DIE,-12.3494,49.291698,MG
Mananara Nord,medium_airport,WMR,-16.16390037536621,49.773799896240234,MG
,medium_airport,ZWA,-14.651700019836426,49.620601654052734,MG
Antsirabe,medium_airport,ANM,-14.9994,50.320202,MG
Analalava,medium_airport,HVA,-14.629514,47.763555,MG
Mahajanga,medium_airport,MJN,-15.666842,46.351233,MG
Nosy Be,medium_airport,NOS,-13.3121,48.3148,MG
Besalampy,medium_airport,BPY,-16.74453,44.482484,MG
Maroantsetra,medium_airport,WMN,-15.437742,49.689081,MG
Sambava,medium_airport,SVB,-14.2786,50.174702,MG
Vohemar,medium_airport,VOH,-13.3758,50.0028,MG
Antsohihy,medium_airport,WAI,-14.898799896240234,47.993900299072266,MG
Tôlanaro,medium_airport,FTU,-25.038099,46.9561,MG
Fianarantsoa,medium_airport,WFI,-21.441601,47.111698,MG
Manakara,medium_airport,WVK,-22.119699,48.021702,MG
Mananjary,medium_airport,MNJ,-21.201799,48.358299,MG
Morombe,medium_airport,MXM,-21.753837,43.374753,MG
Toliara,medium_airport,TLE,-23.3834,43.7285,MG
Mbanza Congo,medium_airport,SSY,-6.269899845123291,14.246999740600586,AO
Benguela,medium_airport,BUG,-12.609,13.4037,AO
Cabinda,medium_airport,CAB,-5.59699010848999,12.188400268554688,AO
Catumbela,medium_airport,CBT,-12.4792,13.4869,AO
Chitato,medium_airport,DUE,-7.400889873504639,20.818500518798828,AO
Ngiva,medium_airport,VPE,-17.0435009003,15.683799743700002,AO
Huambo,medium_airport,NOV,-12.808899879455566,15.760499954223633,AO
Kuito,medium_airport,SVP,-12.404600143433,16.947399139404,AO
Luanda,large_airport,LAD,-8.85837,13.2312,AO
Malanje,medium_airport,MEG,-9.525090217590332,16.312400817871094,AO
Menongue,medium_airport,SPP,-14.657600402832031,17.71980094909668,AO
Moçâmedes,medium_airport,MSZ,-15.2612,12.1468,AO
Negage,medium_airport,GXG,-7.754509925842285,15.287699699401855,AO
Port Amboim,medium_airport,PBN,-10.722000122070312,13.76550006866455,AO
Saurimo,medium_airport,VHC,-9.689069747924805,20.431900024414062,AO
Soyo,medium_airport,SZA,-6.141089916229248,12.371800422668457,AO
Sumbe,medium_airport,NDD,-11.167900085449219,13.84749984741211,AO
Lubango,medium_airport,SDD,-14.924699783325195,13.574999809265137,AO
Luena,medium_airport,LUO,-11.768099784851074,19.8976993560791,AO
Uige,medium_airport,UGO,-7.60306978225708,15.027799606323242,AO
Xangongo,medium_airport,XGN,-16.755399703979492,14.965299606323242,AO
Koulamoutou,medium_airport,KOU,-1.1846100091934,12.441300392151,GA
Mouila,medium_airport,MJL,-1.845139980316162,11.056699752807617,GA
Oyem,medium_airport,OYE,1.5431100130081177,11.581399917602539,GA
Okondja,medium_airport,OKN,-0.6652140021324158,13.673100471496582,GA
Lambarene,medium_airport,LBQ,-0.7043889760971069,10.245699882507324,GA
Bitam,medium_airport,BMM,2.0756399631500244,11.493200302124023,GA
Port Gentil,medium_airport,POG,-0.7117390036582947,8.754380226135254,GA
Omboue,medium_airport,OMB,-1.57473,9.26269,GA
Makokou,medium_airport,MKU,0.5792109966278076,12.890899658203125,GA
Libreville,medium_airport,LBV,0.458600014448,9.412280082699999,GA
Franceville,medium_airport,MVB,-1.6561599969863892,13.437999725341797,GA
São Tomé & Príncipe,medium_airport,PCP,1.66294,7.41174,ST
São Tomé,medium_airport,TMS,0.378175,6.71215,ST
Beira,medium_airport,BEW,-19.79640007019043,34.90760040283203,MZ
Chimoio,medium_airport,VPY,-19.15130043029785,33.42900085449219,MZ
Inhambane,medium_airport,INH,-23.8764,35.408501,MZ
Lichinga,medium_airport,VXC,-13.274,35.2663,MZ
Maputo,large_airport,MPM,-25.920799,32.572601,MZ
Mueda,medium_airport,MUD,-11.672900199890137,39.5630989074707,MZ
Mocímboa da Praia,medium_airport,MZB,-11.361800193786621,40.35490036010742,MZ
Nampula,medium_airport,APL,-15.105600357055664,39.28179931640625,MZ
Pemba / Porto Amelia,medium_airport,POL,-12.991762161254883,40.52401351928711,MZ
Quelimane,medium_airport,UEL,-17.855499267578125,36.86909866333008,MZ
Tete,medium_airport,TET,-16.104799270629883,33.640201568603516,MZ
Vilanculo,medium_airport,VNX,-22.018400192260742,35.31330108642578,MZ
Mahe Island,large_airport,SEZ,-4.67434,55.521801,SC
Grand Anse,medium_airport,PRI,-4.31929,55.691399,SC
Abeche,medium_airport,AEH,13.847,20.844299,TD
Moundou,medium_airport,MQQ,8.62441,16.0714,TD
N'Djamena,large_airport,NDJ,12.1337,15.034,TD
,medium_airport,FYT,17.917101,19.111099,TD
Bulawayo,medium_airport,BUQ,-20.017401,28.617901,ZW
Chiredzi,medium_airport,BFO,-21.008101,31.5786,ZW
Victoria Falls,medium_airport,VFA,-18.09589958190918,25.839000701904297,ZW
Harare,large_airport,HRE,-17.931801,31.0928,ZW
Kariba,medium_airport,KAB,-16.5198,28.885,ZW
Mutoko,medium_airport,,-17.431900024414062,32.18450164794922,ZW
Masvingo,medium_airport,MVZ,-20.055299758911133,30.859100341796875,ZW
Gweru,medium_airport,GWE,-19.436718,29.861945,ZW
Hwange,medium_airport,HWN,-18.629899978637695,27.020999908447266,ZW
Blantyre,medium_airport,BLZ,-15.679100036621094,34.9739990234375,MW
Dwangwa,medium_airport,DWA,-12.517527,34.131877,MW
Karonga,medium_airport,KGJ,-9.953570365905762,33.893001556396484,MW
Lilongwe,medium_airport,LLW,-13.7894001007,33.78099823,MW
Mangochi,medium_airport,MAI,-14.482999801635742,35.266998291015625,MW
Mzuzu,medium_airport,ZZU,-11.444700241088867,34.01179885864258,MW
Maseru,medium_airport,MSU,-29.462299346923828,27.552499771118164,LS
Arandis,medium_airport,ADI,-22.461875,14.979322,NA
Grootfontein,medium_airport,GFY,-19.60219955444336,18.122699737548828,NA
Keetmanshoop,medium_airport,KMP,-26.5398006439209,18.111400604248047,NA
Luderitz,medium_airport,LUD,-26.687400817871094,15.242899894714355,NA
Mariental,medium_airport,,-24.60540008544922,17.925399780273438,NA
Ondangwa,medium_airport,OND,-17.878201,15.9526,NA
Oranjemund,medium_airport,OMD,-28.5847,16.446699,NA
Rundu,medium_airport,NDU,-17.956499099731,19.719400405884,NA
Tsumeb,medium_airport,TSB,-19.26189994812,17.732500076294,NA
Walvis Bay,medium_airport,WVB,-22.9799,14.6453,NA
Windhoek,medium_airport,ERS,-22.612199783325195,17.080400466918945,NA
Windhoek,large_airport,WDH,-22.4799,17.4709,NA
Kinshasa,large_airport,FIH,-4.38575,15.4446,CD
N'dolo,medium_airport,NLO,-4.32666015625,15.327500343323,CD
Bandundu,medium_airport,FDU,-3.31132,17.381701,CD
Kikwit,medium_airport,KKW,-5.03577,18.785601,CD
Mbandaka,medium_airport,MDK,0.0226000007242,18.2887001038,CD
Gbadolite,medium_airport,BDT,4.25321,20.9753,CD
Gemena,medium_airport,GMA,3.2353699207299997,19.771299362199997,CD
,medium_airport,LIQ,2.17066,21.496901,CD
Kisangani,medium_airport,FKI,0.481638997793,25.3379993439,CD
,medium_airport,IRP,2.8276100158691406,27.588300704956055,CD
,medium_airport,BUX,1.5657199621200562,30.220800399780273,CD
,medium_airport,BZU,2.818350076675415,24.793699264526367,CD
,medium_airport,BKY,-2.3089799880981445,28.808799743652344,CD
Goma,medium_airport,GOM,-1.6708099842071533,29.238500595092773,CD
Kindu,medium_airport,KND,-2.91917991638,25.915399551399997,CD
Lubumbashi,medium_airport,FBM,-11.5913000107,27.5308990479,CD
,medium_airport,KWZ,-10.765899658203125,25.505699157714844,CD
,medium_airport,FMI,-5.8755598068237305,29.25,CD
Kamina,medium_airport,,-8.64202,25.252899,CD
Kananga,medium_airport,KGA,-5.90005016327,22.4692001343,CD
Mbuji Mayi,medium_airport,MJM,-6.121240139010001,23.569000244099996,CD
Bamako,large_airport,BKO,12.5335,-7.94994,ML
,medium_airport,GAQ,16.2484,-0.005456,ML
,medium_airport,KYS,14.4812,-11.4044,ML
Sévaré,medium_airport,MZI,14.5128,-4.07956,ML
Timbuktu,medium_airport,TOM,16.730499,-3.00758,ML
Banjul,large_airport,BJL,13.338,-16.652201,GM
El Matorral,large_airport,FUE,28.4527,-13.8638,ES
El Hierro Island,medium_airport,VDE,27.8148,-17.8871,ES
"Sta Cruz de la Palma, La Palma Island",medium_airport,SPC,28.626499,-17.7556,ES
Gran Canaria Island,large_airport,LPA,27.9319,-15.3866,ES
San Bartolomé,large_airport,ACE,28.945499,-13.6052,ES
Tenerife,large_airport,TFS,28.0445,-16.5725,ES
Tenerife,medium_airport,TFN,28.4827,-16.341499,ES
Ozurgeti,medium_airport,,41.9291,41.863499,GE
Senaki,medium_airport,,42.2403057198,42.0454931259,GE
Melilla,medium_airport,MLN,35.2798,-2.95626,ES
Bo,medium_airport,KBS,7.9444,-11.761,SL
Kenema,medium_airport,KEN,7.896364,-11.174126,SL
Freetown (Lungi-Town),large_airport,FNA,8.61644,-13.1955,SL
Yengema,medium_airport,WYE,8.610469818115234,-11.04539966583252,SL
Bissau,medium_airport,OXB,11.894800186157227,-15.65369987487793,GW
Monrovia,medium_airport,MLW,6.289060115814209,-10.758700370788574,LR
Monrovia,large_airport,ROB,6.23379,-10.3623,LR
Agadir (Temsia),medium_airport,AGA,30.322478,-9.412003,MA
Tan Tan,medium_airport,TTA,28.448200225830078,-11.161299705505371,MA
Bouarfa,medium_airport,UAR,32.5143055556,-1.98305555556,MA
Saïss,medium_airport,FEZ,33.927299,-4.97796,MA
Errachidia,medium_airport,ERH,31.9475002289,-4.39833021164,MA
Meknes,medium_airport,MEK,33.87910079956055,-5.515120029449463,MA
Ahl Angad,medium_airport,OUD,34.789558,-1.926041,MA
Smara,medium_airport,SMW,26.731987,-11.683655,EH
Rabat,medium_airport,RBA,34.051498,-6.75152,MA
Dakhla,medium_airport,VIL,23.7183,-15.932,EH
Essaouira,medium_airport,ESU,31.397499,-9.68167,MA
El Aaiún,medium_airport,EUN,27.142467,-13.224947,EH
Casablanca,large_airport,CMN,33.36750030517578,-7.589970111846924,MA
Al Aaroui,medium_airport,NDR,34.9888,-3.02821,MA
Marrakech,medium_airport,RAK,31.606899261499997,-8.03629970551,MA
Kenitra,medium_airport,NNA,34.298901,-6.59588,MA
Ouarzazate,medium_airport,OZZ,30.9391002655,-6.909430027010001,MA
Golog (Maqên),medium_airport,GMQ,34.418066,100.301144,CN
Al Hoceima,medium_airport,AHU,35.177101135253906,-3.83951997756958,MA
Tétouan,medium_airport,TTU,35.594299,-5.32002,MA
Tangier,medium_airport,TNG,35.731741,-5.921459,MA
Dakar,large_airport,DSS,14.67,-17.073333,SN
Ziguinchor,medium_airport,ZIG,12.5556,-16.281799,SN
Cap Skirring,medium_airport,CSK,12.39533,-16.748,SN
Kaolack,medium_airport,KLC,14.146900177001953,-16.051300048828125,SN
Dakar,medium_airport,DKR,14.7397,-17.4902,SN
Ouro Sogui,medium_airport,MAX,15.5936,-13.3228,SN
Saint Louis,medium_airport,XLS,16.049814,-16.461039,SN
Bakel,medium_airport,BXE,14.847299575805664,-12.468299865722656,SN
Kédougou,medium_airport,KGG,12.57229995727539,-12.22029972076416,SN
Tambacounda,medium_airport,TUD,13.736800193786621,-13.65310001373291,SN
Nouakchott,large_airport,NKC,18.31,-15.9697222,MR
Atar,medium_airport,ATR,20.506799697875977,-13.04319953918457,MR
Nouadhibou,medium_airport,NDB,20.9330997467041,-17.030000686645508,MR
Conakry,medium_airport,CKY,9.57689,-13.612,GN
Espargos,large_airport,SID,16.7414,-22.9494,CV
Rabil,medium_airport,BVC,16.136499404907227,-22.888900756835938,CV
Vila do Maio,medium_airport,MMO,15.155900001525879,-23.213699340820312,CV
Praia,medium_airport,RAI,14.924500465393066,-23.493499755859375,CV
Preguiça,medium_airport,SNE,16.588852,-24.284132,CV
São Pedro,medium_airport,VXE,16.8332,-25.0553,CV
Addis Ababa,large_airport,ADD,8.97789,38.799301,ET
,medium_airport,AMH,6.0393900871276855,37.59049987792969,ET
Axum,medium_airport,AXU,14.1468,38.7728,ET
Bahir Dar,medium_airport,BJR,11.6081,37.321602,ET
Dire Dawa,medium_airport,DIR,9.624699592590332,41.85419845581055,ET
Gambela,medium_airport,GMB,8.12876,34.563099,ET
Azezo,medium_airport,GDQ,12.5199,37.433998,ET
Gode,medium_airport,GDE,5.93513011932,43.5786018372,ET
Debre Zeyit,medium_airport,QHR,8.7163,39.0059,ET
Jijiga,medium_airport,JIJ,9.3325,42.9121,ET
Jimma,medium_airport,JIM,7.66609001159668,36.81660079956055,ET
Kebri Dahar,medium_airport,ABK,6.732577,44.241339,ET
Hawassa,medium_airport,AWA,7.099869,38.396187,ET
,medium_airport,MQX,13.467399597167969,39.53350067138672,ET
Asosa,medium_airport,ASO,10.018500328063965,34.586299896240234,ET
Bujumbura,medium_airport,BJM,-3.32402,29.318501,BI
Hargeisa,medium_airport,HGA,9.513207,44.082389,SO
Berbera,medium_airport,BBO,10.385035,44.936723,SO
Kismayo,medium_airport,KMU,-0.377353,42.459202,SO
Mogadishu,medium_airport,MGQ,2.0144400596618652,45.3046989440918,SO
Djibouti City,large_airport,JIB,11.5473,43.1595,DJ
Tanta,medium_airport,,30.836599,30.936001,EG
Markaz Ad Delingat,medium_airport,,30.540501,30.5602,EG
Mansoura,medium_airport,,30.9676,31.4342,EG
Abu Suwayr,medium_airport,,30.57270050048828,32.095298767089844,EG
El Hassana,medium_airport,,30.420182,33.163594,EG
Bilbeis,medium_airport,,30.394899,31.6014,EG
Quesna,medium_airport,,30.579,31.1292,EG
El Alamein,medium_airport,DBB,30.930326,28.463076,EG
El Arish,medium_airport,AAC,31.078565,33.836791,EG
Asyut,medium_airport,ATZ,27.050818,31.016309,EG
Cairo,medium_airport,,30.102644,31.363016,EG
Alexandria,medium_airport,HBE,30.93249,29.696437,EG
Abu Simbel,medium_airport,ABS,22.367657,31.609962,EG
Bani Sweif,medium_airport,,29.20224,31.013471,EG
Cairo,large_airport,CAI,30.111534,31.396694,EG
New Cairo,medium_airport,CCE,30.074293,31.84296,EG
Cairo,medium_airport,,30.107943,30.915222,EG
Hurghada,large_airport,HRG,27.180325,33.807292,EG
El Jora,medium_airport,EGH,31.078138,34.153131,EG
Abu El Matamir,medium_airport,,30.819799,30.1912,EG
Al Ismailiya,medium_airport,,30.59591,32.245678,EG
Luxor,medium_airport,LXR,25.674629,32.700012,EG
Marsa Alam,medium_airport,RMF,25.555548,34.59245,EG
Marsa Matruh,medium_airport,MUH,31.338225,27.217577,EG
Port Said,medium_airport,PSD,31.280348,32.246032,EG
Saint Catherine,medium_airport,SKV,28.682729,34.060503,EG
Suhaj,medium_airport,HMB,26.339115,31.737624,EG
Sharm El Sheikh,large_airport,SSH,27.978902,34.385598,EG
Aswan,medium_airport,ASW,23.968137,32.824445,EG
Al Jiza,medium_airport,SPX,30.108078,30.889252,EG
Taba,medium_airport,TCP,29.594496,34.775752,EG
Asmara,medium_airport,ASM,15.291899681091309,38.910701751708984,ER
Massawa,medium_airport,MSW,15.670000076293945,39.37009811401367,ER
Asab,medium_airport,ASA,13.071800231933594,42.64500045776367,ER
Huai'an,medium_airport,HIA,33.790833,119.125,CN
Juba,large_airport,JUB,4.87201,31.601101,SS
Amboseli National Park,medium_airport,ASV,-2.645050048828125,37.25310134887695,KE
Eldoret,medium_airport,EDL,0.4044579863548279,35.23889923095703,KE
Nairobi,large_airport,NBO,-1.31923997402,36.9277992249,KE
Kisumu,medium_airport,KIS,-0.0861390009522438,34.72890090942383,KE
Kitale,medium_airport,KTL,0.9719889760017395,34.95859909057617,KE
Lokichoggio,medium_airport,LKG,4.20412015914917,34.348201751708984,KE
Lodwar,medium_airport,LOK,3.1219699382781982,35.608699798583984,KE
Lamu,medium_airport,LAU,-2.252431,40.912892,KE
Malindi,medium_airport,MYD,-3.2293100357055664,40.10169982910156,KE
Mombasa,large_airport,MBA,-4.03483,39.5942,KE
Masai Mara,medium_airport,MRE,-1.406111,35.008057,KE
Nairobi,medium_airport,WIL,-1.321720004081726,36.81480026245117,KE
Nanyuki,medium_airport,NYK,-0.062399,37.041008,KE
Nairobi,medium_airport,,-1.2772699594499999,36.8623008728,KE
Wajir,medium_airport,WJR,1.73324,40.091599,KE
,medium_airport,,21.687700271606445,21.830900192260742,LY
Bombah,medium_airport,,32.4529,23.118601,LY
,medium_airport,,32.473400116,11.897899627700001,LY
Sirt,medium_airport,SRX,31.063499,16.594999,LY
Ghat,medium_airport,GHT,25.1455993652,10.142600059500001,LY
Kufra,medium_airport,AKF,24.178699493408203,23.31399917602539,LY
Benina,medium_airport,BEN,32.096802,20.269501,LY
Tripoli,large_airport,MJI,32.89177,13.287878,LY
Al Albraq,medium_airport,LAQ,32.7887,21.9643,LY
Sabha,medium_airport,SEB,26.992452,14.466162,LY
Marsa al Brega,medium_airport,LMQ,30.378099,19.576401,LY
Ghadames,medium_airport,LTD,30.15169906616211,9.715310096740723,LY
Gisenyi,medium_airport,GYI,-1.6771999597549438,29.258899688720703,RW
Kigali,large_airport,KGL,-1.96863,30.1395,RW
Kamembe,medium_airport,KME,-2.462239980697632,28.907899856567383,RW
Dongola,medium_airport,DOG,19.153900146499996,30.430099487299998,SD
Higleig,medium_airport,,10.529167,32.500556,SS
El Fasher,medium_airport,ELF,13.614899635314941,25.324600219726562,SD
Kassala,medium_airport,KSL,15.387499809265137,36.328800201416016,SD
Merowe,medium_airport,MWE,18.443333,31.843333,SD
Nyala,medium_airport,UYL,12.0535,24.9562,SD
El-Obeid,medium_airport,EBD,13.1532,30.2327,SD
Port Sudan,medium_airport,PZU,19.4335994720459,37.234100341796875,SD
Geneina,medium_airport,,13.4774,22.53722,SD
Khartoum,large_airport,KRT,15.5895,32.5532,SD
Malakal,medium_airport,MAK,9.55897,31.652201,SS
Wau,medium_airport,WUU,7.72583,27.975,SS
Arusha,medium_airport,ARK,-3.3677899837493896,36.63330078125,TZ
Dar es Salaam,large_airport,DAR,-6.87811,39.202599,TZ
Dodoma,medium_airport,DOD,-6.17044,35.752602,TZ
Mbeya,medium_airport,MBI,-8.919942,33.273981,TZ
Nduli,medium_airport,IRI,-7.668630123138428,35.75210189819336,TZ
Arusha,medium_airport,JRO,-3.42941,37.074501,TZ
Lake Manyara National Park,medium_airport,LKY,-3.376310110092163,35.81829833984375,TZ
Mtwara,medium_airport,MYW,-10.336204,40.181997,TZ
Mwanza,medium_airport,MWZ,-2.4444899559020996,32.932701110839844,TZ
Chake Chake,medium_airport,PMA,-5.25726,39.811401,TZ
Tanga,medium_airport,TGT,-5.09236,39.071201,TZ
Zanzibar,large_airport,ZNZ,-6.22202,39.224899,TZ
Kalocsa/Foktő,medium_airport,,46.549613,18.942421,HU
Arua,medium_airport,RUA,3.049152,30.911714,UG
Kampala,large_airport,EBB,0.042386,32.443501,UG
Gulu,medium_airport,ULU,2.8055601119995117,32.27180099487305,UG
Soroti,medium_airport,SRT,1.7276899814605713,33.622798919677734,UG
Chengdu (Jintang),medium_airport,HZU,30.677339,104.529397,CN
Bazaruto Island,medium_airport,IBL,-21.708,35.452801,MZ
Kolaka,medium_airport,KXB,-4.341217,121.523983,ID
Sugapa,medium_airport,UGU,-3.739503,137.031183,ID
Bengaluru,medium_airport,,13.07674,77.597645,IN
Hollongi,medium_airport,HGI,26.96683,93.638792,IN
Anah,medium_airport,,33.816262,41.436712,IQ
,medium_airport,,33.36372375488281,40.5880241394043,IQ
,medium_airport,,32.92938232421875,39.74510192871094,IQ
,medium_airport,,33.07456970214844,39.59961700439453,IQ
,medium_airport,,32.74492645263672,39.59955596923828,IQ
Jalibah,medium_airport,,30.546518,46.602779,IQ
,medium_airport,,32.11684036254883,46.382240295410156,IQ
,medium_airport,,31.456581115722656,47.289791107177734,IQ
Baghdad,medium_airport,,33.279327,44.493706,IQ
,medium_airport,,32.40611267089844,39.12361145019531,IQ
,medium_airport,,35.8592643737793,42.14213943481445,IQ
,medium_airport,,34.1640739440918,44.7469482421875,IQ
Dhuluiya,medium_airport,,34.16554,44.264304,IQ
,medium_airport,,35.139721,44.133888,IQ
,medium_airport,,34.93722152709961,44.4827766418457,IQ
,medium_airport,,31.417402267456055,43.1823616027832,IQ
Ishigaki,medium_airport,ISG,24.396389,124.245,JP
Jiagedaqi,medium_airport,JGD,50.371389,124.1175,CN
Qianjiang,medium_airport,JIQ,29.5133333333,108.831111111,CN
Cruz,medium_airport,JJD,-2.906425,-40.357338,BR
"Linghai, Jinzhou",medium_airport,JNZ,40.936032,121.277114,CN
Al-Jafr,medium_airport,,30.3435,36.147701,JO
Boulder City,medium_airport,BLD,35.947498,-114.861,US
Mesquite,medium_airport,MFH,36.833105,-114.055928,US
Andalusia/Opp,medium_airport,,31.3088,-86.393799,US
Allentown,medium_airport,ABE,40.651773,-75.442797,US
Abilene,medium_airport,ABI,32.4113006592,-99.68190002440001,US
Albuquerque,medium_airport,ABQ,35.040199,-106.609001,US
Aberdeen,medium_airport,ABR,45.449100494384766,-98.42179870605469,US
Albany,medium_airport,ABY,31.532946,-84.196215,US
Nantucket,medium_airport,ACK,41.25310135,-70.06020355,US
Waco,medium_airport,ACT,31.611299514770508,-97.23049926757812,US
Arcata/Eureka,medium_airport,ACV,40.978101,-124.109,US
Atlantic City,medium_airport,ACY,39.45759963989258,-74.57720184326172,US
Camp Springs,large_airport,ADW,38.810799,-76.866997,US
Alexandria,medium_airport,AEX,31.3274,-92.549797,US
Fort Worth,medium_airport,AFW,32.99044,-97.31947,US
Pittsburgh,medium_airport,AGC,40.354401,-79.930199,US
Augusta,medium_airport,AGS,33.3699,-81.9645,US
Athens,medium_airport,AHN,33.94860076904297,-83.32630157470703,US
Akron,medium_airport,AKC,41.037498,-81.466904,US
Albany,medium_airport,ALB,42.74829864501953,-73.80169677734375,US
Alice,medium_airport,ALI,27.7409,-98.026901,US
Alamogordo,medium_airport,ALM,32.8399009705,-105.990997314,US
Alton/St Louis,medium_airport,ALN,38.89030075069999,-90.0459976196,US
Waterloo,medium_airport,ALO,42.557098388671875,-92.40029907226562,US
Alamosa,medium_airport,ALS,37.434898,-105.866997,US
Walla Walla,medium_airport,ALW,46.09489822,-118.288002,US
Amarillo,medium_airport,AMA,35.219398,-101.706001,US
Anniston,medium_airport,ANB,33.5882,-85.8581,US
Anderson,medium_airport,AND,34.4945983887,-82.70939636230001,US
Altoona,medium_airport,AOO,40.296398,-78.32,US
Denver,medium_airport,APA,39.57009888,-104.848999,US
Naples,medium_airport,APF,26.1525993347,-81.7752990723,US
Aberdeen Proving Grounds(Aberdeen),medium_airport,APG,39.466202,-76.1688,US
Alpena,medium_airport,APN,45.0780983,-83.56030273,US
New Iberia,medium_airport,ARA,30.0378,-91.883904,US
Watertown,medium_airport,ART,43.991901,-76.021698,US
Aspen,medium_airport,ASE,39.22320175,-106.8690033,US
Astoria,medium_airport,AST,46.158000946,-123.878997803,US
Atlanta,large_airport,ATL,33.6367,-84.428101,US
Watertown,medium_airport,ATY,44.91400146,-97.15470123,US
Augusta,medium_airport,AUG,44.320598602299995,-69.7973022461,US
Austin,large_airport,AUS,30.197535,-97.662015,US
Wausau,medium_airport,AUW,44.9262008667,-89.6266021729,US
Asheville,medium_airport,AVL,35.436199,-82.541801,US
Wilkes-Barre/Scranton,medium_airport,AVP,41.338500976599995,-75.72339630130001,US
Alexandria,medium_airport,AXN,45.866299,-95.394699,US
Kalamazoo,medium_airport,AZO,42.234901428222656,-85.5521011352539,US
Marysville,medium_airport,BAB,39.136101,-121.436996,US
Bossier City,medium_airport,BAD,32.501801,-93.662697,US
Westfield,medium_airport,BAF,42.157799,-72.715599,US
Columbus,medium_airport,CLU,39.262386,-85.895576,US
Brady,medium_airport,BBD,31.1793003082,-99.3238983154,US
Bryce Canyon,medium_airport,BCE,37.706401825,-112.144996643,US
Baudette,medium_airport,BDE,48.7284011841,-94.612197876,US
Hartford,medium_airport,BDL,41.93851,-72.688066,US
Bridgeport,medium_airport,BDR,41.16350173950195,-73.1261978149414,US
Bedford,medium_airport,BED,42.47000122,-71.28900146,US
Bradford,medium_airport,BFD,41.8031005859375,-78.64009857177734,US
Scottsbluff,medium_airport,BFF,41.87400055,-103.5960007,US
Seattle,medium_airport,BFI,47.529999,-122.302002,US
Bakersfield,medium_airport,BFL,35.433601,-119.056999,US
Mobile,medium_airport,BFM,30.626800537100003,-88.06809997559999,US
Binghamton,medium_airport,BGM,42.20869827,-75.97979736,US
Bangor,medium_airport,BGR,44.8074,-68.828102,US
Bar Harbor,medium_airport,BHB,44.45000076,-68.3615036,US
Birmingham,medium_airport,BHM,33.562901,-86.753502,US
Fort Bliss/El Paso,medium_airport,BIF,31.84950066,-106.3799973,US
Bishop,medium_airport,BIH,37.3731002808,-118.363998413,US
Billings,medium_airport,BIL,45.807701,-108.542999,US
Bismarck,medium_airport,BIS,46.772701263427734,-100.74600219726562,US
Biloxi,medium_airport,BIX,30.4104003906,-88.92440032959999,US
Denver,medium_airport,BJC,39.90879822,-105.1169968,US
Bemidji,medium_airport,BJI,47.50939941,-94.93370056,US
Baker City,medium_airport,BKE,44.837299346900004,-117.808998108,US
Aurora,medium_airport,BFK,39.701698,-104.751999,US
Cleveland,medium_airport,BKL,41.51750183105469,-81.68329620361328,US
Beckley,medium_airport,BKW,37.787300109899995,-81.1241989136,US
Bluefield,medium_airport,BLF,37.295799,-81.207703,US
Blythe,medium_airport,BLH,33.6192016602,-114.717002869,US
Bellingham,medium_airport,BLI,48.79280090332031,-122.53800201416016,US
Belleville,medium_airport,BLV,38.5452,-89.835197,US
Bloomington,medium_airport,BMG,39.145999908447266,-86.61669921875,US
Bloomington/Normal,medium_airport,BMI,40.4771,-88.915901,US
Nashville,large_airport,BNA,36.1245002746582,-86.6781997680664,US
Burns,medium_airport,BNO,43.590463,-118.955154,US
Boise,medium_airport,BOI,43.5644,-116.223,US
Boston,large_airport,BOS,42.3643,-71.005203,US
Big Piney,medium_airport,BPI,42.58509827,-110.1110001,US
Mountain Home,medium_airport,WMH,36.3689002991,-92.47049713130001,US
Beaumont/Port Arthur,medium_airport,BPT,29.9508,-94.020699,US
Brunswick,medium_airport,BQK,31.258800506591797,-81.46649932861328,US
Brainerd,medium_airport,BRD,46.402861,-94.129727,US
Burlington,medium_airport,BRL,40.783199310302734,-91.12550354003906,US
Brownsville,medium_airport,BRO,25.90679931640625,-97.4259033203125,US
Battle Creek,medium_airport,BTL,42.307301,-85.251503,US
Butte,medium_airport,BTM,45.95479965209961,-112.49700164794922,US
Baton Rouge,medium_airport,BTR,30.533199,-91.149597,US
South Burlington,medium_airport,BTV,44.471901,-73.153297,US
Buffalo,large_airport,BUF,42.94049835,-78.73220062,US
Burbank,medium_airport,BUR,34.197703,-118.356378,US
Beaver Falls,medium_airport,BFP,40.772499,-80.391403,US
Beverly / Danvers,medium_airport,BVY,42.584202,-70.916496,US
Bowling Green,medium_airport,BWG,36.964500427199994,-86.41970062259999,US
Baltimore,large_airport,BWI,39.1754,-76.668297,US
Blytheville,medium_airport,BYH,35.9642982483,-89.94400024410001,US
Burley,medium_airport,BYI,42.542598724399994,-113.772003174,US
Fort Irwin/Barstow,medium_airport,BYS,35.2804985046,-116.629997253,US
Bozeman,medium_airport,BZN,45.77750015,-111.1529999,US
Columbia,medium_airport,CAE,33.938801,-81.119499,US
Akron,medium_airport,CAK,40.916099548339844,-81.44219970703125,US
Caribou,medium_airport,CAR,46.871498,-68.017899,US
Columbus,medium_airport,CBM,33.643799,-88.443802,US
Charles City,medium_airport,CCY,43.0726013184,-92.6108016968,US
Cedar City,medium_airport,CDC,37.70100021362305,-113.0989990234375,US
Chadron,medium_airport,CDR,42.837600708,-103.095001221,US
Childress,medium_airport,CDS,34.4337997437,-100.288002014,US
Crescent City,medium_airport,CEC,41.78020096,-124.2369995,US
Chicopee,medium_airport,CEF,42.194,-72.534798,US
Crestview,medium_airport,CEW,30.778799057,-86.522102356,US
Cleveland,medium_airport,CGF,41.5651016235,-81.4863967896,US
Cape Girardeau,medium_airport,CGI,37.2253,-89.570801,US
Chattanooga,medium_airport,CHA,35.035301,-85.203796,US
Charlottesville,medium_airport,CHO,38.13859939575195,-78.4529037475586,US
Charleston,medium_airport,CHS,32.898602,-80.040497,US
Cedar Rapids,medium_airport,CID,41.884701,-91.7108,US
Sault Ste Marie,medium_airport,CIU,46.25080108642578,-84.47239685058594,US
Bridgeport,medium_airport,CKB,39.2966,-80.228104,US
Cleveland,large_airport,CLE,41.4117012024,-81.8498001099,US
College Station,medium_airport,CLL,30.58860016,-96.36380005,US
Port Angeles,medium_airport,CLM,48.120201110839844,-123.5,US
Charlotte,large_airport,CLT,35.2140007019043,-80.94309997558594,US
Camarillo,large_airport,,34.213699,-119.094002,US
Columbus,large_airport,CMH,39.998001,-82.891899,US
Savoy,medium_airport,CMI,40.039819,-88.276249,US
Hancock,medium_airport,CMX,47.168399810791016,-88.48909759521484,US
Carlsbad,medium_airport,CNM,32.337501525878906,-104.26300048828125,US
Chanute,medium_airport,CNU,37.668173,-95.486727,US
Cody,medium_airport,COD,44.520198822,-109.024002075,US
Coeur d'Alene,medium_airport,COE,47.77429962,-116.8199997,US
Cocoa Beach,medium_airport,COF,28.2349,-80.6101,US
Concord,medium_airport,CON,43.20270157,-71.50229645,US
Colorado Springs,medium_airport,COS,38.805801,-104.700996,US
Columbia,medium_airport,COU,38.8181,-92.219597,US
Hazard,medium_airport,,37.386666,-83.261666,US
Casper,medium_airport,CPR,42.908001,-106.463997,US
North Myrtle Beach,medium_airport,CRE,33.8116989136,-78.72389984130001,US
Jacksonville,medium_airport,CRG,30.3362998962,-81.51439666750001,US
Corpus Christi,medium_airport,CRP,27.770399,-97.501198,US
Carlsbad,medium_airport,CLD,33.1283,-117.279999,US
Charleston,medium_airport,CRW,38.3731,-81.593201,US
Columbus,medium_airport,CSG,32.516300201416016,-84.93890380859375,US
Crossville,medium_airport,CSV,35.9513015747,-85.08499908450001,US
Cut Bank,medium_airport,CTB,48.608657,-112.378183,US
Columbia,medium_airport,CUB,33.970500946,-80.9952011108,US
Cincinnati / Covington,large_airport,CVG,39.048801,-84.667801,US
Corvallis,medium_airport,CVO,44.49720001,-123.2900009,US
Clovis,medium_airport,CVS,34.382801,-103.321999,US
Mosinee,medium_airport,CWA,44.7775993347,-89.6668014526,US
Houston,medium_airport,CXO,30.351801,-95.414497,US
Cheyenne,medium_airport,,41.155701,-104.811997,US
Fort Belvoir,medium_airport,DAA,38.715000152600005,-77.1809997559,US
Daytona Beach,medium_airport,DAB,29.179899,-81.058098,US
Daggett,medium_airport,DAG,34.85369873,-116.7870026,US
Dallas,medium_airport,DAL,32.847099,-96.851799,US
Danville,medium_airport,DAN,36.572899,-79.336098,US
Dayton,medium_airport,DAY,39.902401,-84.219398,US
Dubuque,medium_airport,DBQ,42.402,-90.709503,US
Washington,large_airport,DCA,38.8521,-77.037697,US
Dodge City,medium_airport,DDC,37.76340103149414,-99.9655990600586,US
Decatur,medium_airport,DEC,39.834598541259766,-88.8656997680664,US
Denver,large_airport,DEN,39.861698150635,-104.672996521,US
Detroit,medium_airport,DET,42.40919876,-83.00990295,US
Dallas-Fort Worth,large_airport,DFW,32.896801,-97.038002,US
Dothan,medium_airport,DHN,31.321300506591797,-85.44960021972656,US
Dalhart,medium_airport,DHT,36.0225982666,-102.54699707,US
Dickinson,medium_airport,DIK,46.7974014282,-102.802001953,US
Del Rio,medium_airport,DLF,29.359501,-100.778002,US
Duluth,medium_airport,DLH,46.842098,-92.193604,US
Dallesport / The Dalles,medium_airport,DLS,45.620979,-121.170777,US
Tucson,medium_airport,DMA,32.1665000916,-110.883003235,US
Deming,medium_airport,DMN,32.262298584,-107.721000671,US
Augusta,medium_airport,DNL,33.4664993286,-82.0393981934,US
Dover,medium_airport,DOV,39.129501,-75.466003,US
Chicago/West Chicago,medium_airport,DPA,41.90779877,-88.24859619,US
Mercury,medium_airport,DRA,36.6194,-116.032997,US
DeRidder,medium_airport,DRI,30.831699,-93.339897,US
Del Rio,medium_airport,DRT,29.3742008209,-100.927001953,US
Des Moines,medium_airport,DSM,41.534,-93.663101,US
Detroit,large_airport,DTW,42.212398529052734,-83.35340118408203,US
Douglas Bisbee,medium_airport,DUG,31.4689998627,-109.603996277,US
Dubois,medium_airport,DUJ,41.17829895,-78.8986969,US
Abilene,medium_airport,DYS,32.420799,-99.854599,US
Nanyuki,medium_airport,,0.032933,37.026901,KE
Kearney,medium_airport,EAR,40.727001,-99.006798,US
Wenatchee,medium_airport,EAT,47.3988990784,-120.207000732,US
Eau Claire,medium_airport,EAU,44.86579895019531,-91.48429870605469,US
Elizabeth City,medium_airport,ECG,36.260601,-76.174599,US
Panama City Beach,medium_airport,ECP,30.357106,-85.795414,US
Edwards,medium_airport,EDW,34.905399,-117.884003,US
Needles,medium_airport,EED,34.7663002014,-114.623001099,US
Keene,medium_airport,EEN,42.898399,-72.270798,US
Alabaster,medium_airport,,33.17699814,-86.78279877,US
Houston,medium_airport,EFD,29.607299804700002,-95.1587982178,US
Eagle,medium_airport,EGE,39.64260101,-106.9179993,US
Crestview,medium_airport,EGI,30.65040016,-86.52290344,US
Eureka,medium_airport,EKA,40.803398132299996,-124.112998962,US
Elkins,medium_airport,EKN,38.889759,-79.857651,US
Elko,medium_airport,EKO,40.82490158081055,-115.79199981689453,US
El Dorado,medium_airport,ELD,33.221001,-92.813301,US
Elmira/Corning,medium_airport,ELM,42.1599006652832,-76.8916015625,US
Ely,medium_airport,LYU,47.82450104,-91.83070374,US
El Paso,medium_airport,ELP,31.80719948,-106.3779984,US
Ely,medium_airport,ELY,39.29970169,-114.8420029,US
Enid,medium_airport,END,36.339199,-97.916496,US
Wendover,medium_airport,ENV,40.7187004089,-114.03099823,US
Kenosha,medium_airport,ENW,42.59569931,-87.92780304,US
Erie,medium_airport,ERI,42.083127,-80.173867,US
Alexandria,medium_airport,ESF,31.394266,-92.294082,US
Eugene,medium_airport,EUG,44.12459945678711,-123.21199798583984,US
Evansville,medium_airport,EVV,38.0369987488,-87.5324020386,US
Evanston,medium_airport,EVW,41.27479935,-111.0350037,US
New Bedford,medium_airport,EWB,41.67610168457031,-70.95690155029297,US
New Bern,medium_airport,EWN,35.0730018616,-77.04290008539999,US
Newark,large_airport,EWR,40.692501,-74.168701,US
Key West,medium_airport,EYW,24.556101,-81.759598,US
Newport News (Fort Eustis),medium_airport,FAF,37.1325,-76.608803,US
Fargo,medium_airport,FAR,46.92070007324219,-96.81580352783203,US
Fresno,medium_airport,FAT,36.776199,-119.718002,US
Fayetteville,medium_airport,FAY,34.991199,-78.880302,US
Fort Bragg,medium_airport,FBG,35.13180161,-78.93669891,US
Fort Carson,medium_airport,FCS,38.67839813,-104.7570038,US
Findlay,medium_airport,FDY,41.013500213600004,-83.66870117190001,US
Dayton,medium_airport,FFO,39.826099,-84.048302,US
Fort Huachuca / Sierra Vista,medium_airport,FHU,31.587383,-110.348225,US
Franklin,medium_airport,FKL,41.3778991699,-79.8603973389,US
Flagstaff,medium_airport,FLG,35.1385,-111.670998,US
Fort Lauderdale,large_airport,FLL,26.072599,-80.152702,US
Florence,medium_airport,FLO,34.18539810180664,-79.7238998413086,US
Fort Meade(Odenton),medium_airport,FME,39.08539962769999,-76.7593994141,US
Farmington,medium_airport,FMN,36.741199,-108.230003,US
Fort Myers,medium_airport,FMY,26.58659935,-81.86329650879999,US
Flint,medium_airport,FNT,42.96540069580078,-83.74359893798828,US
Fort Dodge,medium_airport,FOD,42.55149841,-94.19259644,US
Topeka,medium_airport,FOE,38.950901,-95.663597,US
Fort Pierce,medium_airport,FPR,27.49510002,-80.36830139,US
Farmingdale,medium_airport,FRG,40.7288017273,-73.4133987427,US
Fort Riley (Junction City),medium_airport,FRI,39.053021,-96.764202,US
Sioux Falls,medium_airport,FSD,43.585463,-96.741152,US
Fort Sill,medium_airport,FSI,34.64979935,-98.40219879,US
Fort Smith,medium_airport,FSM,35.336601,-94.367401,US
Fort Stockton,medium_airport,FST,30.9157009125,-102.916000366,US
Fort Knox,medium_airport,FTK,37.907100677500004,-85.9720993042,US
Fort Worth,medium_airport,FTW,32.819801,-97.362396,US
Atlanta,medium_airport,FTY,33.7790985107,-84.5214004517,US
Fort Wayne,medium_airport,FWA,40.9785,-85.195099,US
Fort Lauderdale,medium_airport,FXE,26.1972999573,-80.1707000732,US
Fayetteville,medium_airport,FYV,36.00510025024414,-94.17009735107422,US
Jalal-Abad,medium_airport,,40.944401,72.977798,KG
Gillette,medium_airport,GCC,44.3489,-105.539001,US
Garden City,medium_airport,GCK,37.9275016785,-100.723999023,US
Grand Canyon - Tusayan,medium_airport,GCN,35.9524,-112.147003,US
Glendive,medium_airport,GDV,47.13869858,-104.8069992,US
